city,country,lat,lon
Tokyo,Japan,35.6897,139.6922
Jakarta,Indonesia,-6.175,106.8275
Delhi,India,28.61,77.23
Guangzhou,China,23.13,113.26
Mumbai,India,19.0761,72.8775
Manila,Philippines,14.5958,120.9772
Shanghai,China,31.1667,121.4667
Sao Paulo,Brazil,-23.55,-46.6333
Seoul,South Korea,37.56,126.99
Mexico City,Mexico,19.4333,-99.1333
Cairo,Egypt,30.0444,31.2358
New York,United States,40.6943,-73.9249
Dhaka,Bangladesh,23.7639,90.3889
Beijing,China,39.904,116.4075
Kolkata,India,22.5675,88.37
Bangkok,Thailand,13.7525,100.4942
Shenzhen,China,22.535,114.054
Moscow,Russia,55.7558,37.6178
Buenos Aires,Argentina,-34.5997,-58.3819
Lagos,Nigeria,6.455,3.3841
Istanbul,Turkey,41.0136,28.955
Karachi,Pakistan,24.86,67.01
Bangalore,India,12.9789,77.5917
Ho Chi Minh City,Vietnam,10.7756,106.7019
Osaka,Japan,34.6939,135.5022
Chengdu,China,30.66,104.0633
Tehran,Iran,35.6892,51.3889
Kinshasa,Congo (Kinshasa),-4.325,15.3222
Rio de Janeiro,Brazil,-22.9111,-43.2056
Chennai,India,13.0825,80.275
Xi'an,China,34.2667,108.9
Lahore,Pakistan,31.5497,74.3436
Chongqing,China,29.55,106.5069
Los Angeles,United States,34.1141,-118.4068
Baoding,China,38.8671,115.4845
London,United Kingdom,51.5072,-0.1275
Paris,France,48.8567,2.3522
Linyi,China,35.1041,118.3502
Dongguan,China,23.0475,113.7493
Hyderabad,India,17.385,78.4867
Tianjin,China,39.1467,117.2056
Lima,Peru,-12.06,-77.0375
Wuhan,China,30.5872,114.2881
Nanyang,China,32.9987,112.5292
Hangzhou,China,30.25,120.1675
Foshan,China,23.0292,113.1056
Nagoya,Japan,35.1833,136.9
Taipei,Taiwan,25.0375,121.5625
Tongshan,China,34.261,117.1859
Luanda,Angola,-8.8383,13.2344
Zhoukou,China,33.625,114.6418
Ganzhou,China,25.8292,114.9336
Kuala Lumpur,Malaysia,3.1478,101.6953
Heze,China,35.2333,115.4333
Quanzhou,China,24.9139,118.5858
Chicago,United States,41.8375,-87.6866
Nanjing,China,32.0608,118.7789
Jining,China,35.4,116.5667
Hanoi,Vietnam,21.0283,105.8542
Pune,India,18.5203,73.8567
Fuyang,China,32.8986,115.8045
Ahmedabad,India,23.03,72.58
Johannesburg,South Africa,-26.2044,28.0456
Bogota,Colombia,4.7111,-74.0722
Dar es Salaam,Tanzania,-6.8161,39.2803
Shenyang,China,41.8025,123.4281
Khartoum,Sudan,15.5006,32.56
Shangqiu,China,34.4259,115.6467
Cangzhou,China,38.3037,116.8452
Hong Kong,Hong Kong,22.3,114.2
Shaoyang,China,27.2418,111.4725
Zhanjiang,China,21.1967,110.4031
Yancheng,China,33.3936,120.1339
Hengyang,China,26.8968,112.5857
Riyadh,Saudi Arabia,24.6333,46.7167
Zhumadian,China,32.9773,114.0253
Santiago,Chile,-33.4372,-70.6506
Xingtai,China,37.0659,114.4753
Chattogram,Bangladesh,22.335,91.8325
Bijie,China,27.3019,105.2863
Shangrao,China,28.4419,117.9633
Zunyi,China,27.705,106.9336
Surat,India,21.1702,72.8311
Surabaya,Indonesia,-7.2458,112.7378
Huanggang,China,30.45,114.875
Maoming,China,21.6618,110.9178
Nanchong,China,30.7991,106.0784
Xinyang,China,32.1264,114.0672
Madrid,Spain,40.4169,-3.7033
Baghdad,Iraq,33.3153,44.3661
Qujing,China,25.5102,103.8029
Jieyang,China,23.5533,116.3649
Singapore,Singapore,1.3,103.8
Prayagraj,India,25.4358,81.8464
Liaocheng,China,36.45,115.9833
Dalian,China,38.9,121.6
Yulin,China,22.6293,110.1507
Changde,China,29.0397,111.6839
Qingdao,China,36.1167,120.4
Douala,Cameroon,4.05,9.7
Miami,United States,25.784,-80.2101
Nangandao,China,35.2992,113.8851
Pudong,China,31.2231,121.5397
Xiangyang,China,32.0654,112.1531
Dallas,United States,32.7935,-96.7667
Houston,United States,29.786,-95.3885
Zhengzhou,China,34.7492,113.6605
Lu'an,China,31.7542,116.5078
Dezhou,China,37.4513,116.3105
Jinan,China,36.6667,116.9833
Giza,Egypt,29.987,31.2118
Zhaotong,China,27.3328,103.7144
Yichun,China,27.8041,114.383
Nairobi,Kenya,-1.2864,36.8172
Guadalajara,Mexico,20.6767,-103.3475
Philadelphia,United States,40.0077,-75.1339
Ankara,Turkey,39.93,32.85
Tai'an,China,36.2001,117.0809
Dazhou,China,31.2152,107.4947
Langfang,China,39.5196,116.7006
Yongzhou,China,26.4515,111.5953
Toronto,Canada,43.7417,-79.3733
Suihua,China,46.6384,126.9808
Saint Petersburg,Russia,59.95,30.3167
Qiqihar,China,47.3398,123.9512
Suzhou,China,33.6333,116.9683
Monterrey,Mexico,25.6667,-100.3
Belo Horizonte,Brazil,-19.9167,-43.9333
Weinan,China,34.4996,109.4684
Rangoon,Myanmar,16.795,96.16
Zhangzhou,China,24.5093,117.6612
Yuncheng,China,35.0304,110.998
Xianyang,China,34.35,108.7167
Guilin,China,25.2819,110.2864
Atlanta,United States,33.7628,-84.422
Taizhou,China,32.4831,119.9
Kashan,Iran,33.9833,51.4333
Bozhou,China,33.8626,115.7742
Abidjan,Côte d'Ivoire,5.3167,-4.0333
Suqian,China,33.9331,118.2831
Huaihua,China,27.5494,109.9592
Ji'an,China,27.1172,114.9793
Xiaoganzhan,China,30.9273,113.911
Pingdingshan,China,33.735,113.2999
Jiujiang,China,29.7048,116.0021
Alexandria,Egypt,31.1975,29.8925
Mianyang,China,31.4669,104.7385
Sydney,Australia,-33.8678,151.21
Huanglongsi,China,34.795,114.345
Washington,United States,38.9047,-77.0163
Barcelona,Spain,41.3825,2.1769
Changsha,China,28.1987,112.9709
Chenzhou,China,25.7989,113.0267
Anqing,China,30.5,117.0333
Jiangmen,China,22.5833,113.0833
Xinpu,China,34.5906,119.1801
Yibin,China,28.7596,104.64
Yangzhou,China,32.3912,119.4363
Melbourne,Australia,-37.8142,144.9631
Berlin,Germany,52.52,13.405
Hengshui,China,37.7348,115.686
Timbio,Colombia,2.3445,-76.6839
Kunming,China,25.0433,102.7061
Yiyang,China,28.5833,112.3333
Guigang,China,23.0961,109.6092
Changchun,China,43.9,125.2
Jiangguanchi,China,34.0244,113.8201
Casablanca,Morocco,33.5333,-7.5833
Meizhou,China,24.2998,116.1191
Zhangjiakou,China,40.8108,114.8811
Chifeng,China,42.2663,118.9223
Urumqi,China,43.8225,87.6125
Suzhou,China,31.3,120.6194
Izmir,Turkey,38.42,27.14
Linfen,China,36.0812,111.5087
Shantou,China,23.3735,116.6941
Kabul,Afghanistan,34.5253,69.1783
Mogadishu,Somalia,2.0392,45.3419
Luzhou,China,28.8918,105.4409
Hefei,China,31.8639,117.2808
Boston,United States,42.3188,-71.0852
Liuzhou,China,24.3264,109.4281
Zhaoqing,China,23.05,112.4667
Xiaoxita,China,30.7083,111.2803
Shijiazhuang,China,38.0422,114.5086
Ningbo,China,29.875,121.5492
Fuzhou,China,27.9814,116.3577
Phoenix,United States,33.5722,-112.0892
Zhuzhou,China,27.8407,113.1469
Amman,Jordan,31.9497,35.9328
Chuzhou,China,32.3062,118.3115
Jeddah,Saudi Arabia,21.5433,39.1728
Qingyuan,China,23.6842,113.0507
Loudi,China,27.7378,111.9974
Binzhou,China,37.3806,118.0125
Deyang,China,31.1289,104.395
Taiyuan,China,37.8733,112.5425
Kano,Nigeria,12,8.5167
Wuhu,China,31.334,118.3622
Nanning,China,22.8192,108.315
Harbin,China,45.75,126.6333
Abuja,Nigeria,9.0667,7.4833
Yokohama,Japan,35.4442,139.6381
Baojishi,China,34.3609,107.1751
Zaozhuang,China,34.8667,117.55
Xiamen,China,24.4797,118.0819
Neijiang,China,29.5872,105.0635
Fuzhou,China,26.0769,119.2917
Baicheng,China,23.901,106.6194
Anshan,China,41.1066,122.9895
Medan,Indonesia,3.5894,98.6739
Yulinshi,China,38.2655,109.7388
Wenzhou,China,27.9991,120.6561
Changzhou,China,31.8122,119.9692
Puyang,China,35.7639,115.03
Jiaozuo,China,35.229,113.2304
Nanchang,China,28.6842,115.8872
Ibadan,Nigeria,7.3964,3.9167
Hechi,China,24.6928,108.085
Detroit,United States,42.3834,-83.1024
Montreal,Canada,45.5089,-73.5617
Busan,South Korea,35.18,129.075
Hohhot,China,40.8151,111.6629
Seattle,United States,47.6211,-122.3244
Algiers,Algeria,36.7539,3.0589
Hanzhong,China,33.0794,107.026
Tangshan,China,39.6292,118.1742
Shiyan,China,32.6351,110.7755
Lucknow,India,26.85,80.95
Siping,China,43.1715,124.3644
Mashhad,Iran,36.3,59.6
Boankra,Ghana,6.6944,-1.4028
Changzhi,China,36.1953,113.097
Dubai,United Arab Emirates,25.2631,55.2972
Qinzhou,China,21.95,108.6167
Guiyang,China,26.5794,106.7078
Bengbu,China,32.9354,117.3531
San Francisco,United States,37.7558,-122.4449
Bazhou,China,31.8576,106.7559
Qincheng,China,34.5809,105.7311
Suining,China,30.5098,105.5737
Wuxi,China,31.5667,120.2833
Leshan,China,29.5854,103.7575
Putian,China,25.4394,119.0103
Zhenjiang,China,32.2109,119.4551
Faisalabad,Pakistan,31.4167,73.0911
Guang'an,China,30.4673,106.6336
Tongren,China,27.7233,109.1885
Santa Cruz,Bolivia,-17.7892,-63.1975
Qinhuangdao,China,39.9398,119.5881
Tongliao,China,43.6172,122.264
Jinzhou,China,41.1144,121.1292
Heyuan,China,23.7503,114.6923
San Diego,United States,32.8313,-117.1222
Jaipur,India,26.9,75.8
Xinzhou,China,38.4178,112.7233
Lanzhou,China,36.0617,103.8318
Wuzhou,China,23.4833,111.3167
Athens,Greece,37.9842,23.7281
Addis Ababa,Ethiopia,9.03,38.74
Chaoyang,China,41.5757,120.4486
Brasilia,Brazil,-15.7939,-47.8828
Taichung,Taiwan,24.1439,120.6794
Kuwait City,Kuwait,29.3697,47.9783
Budapest,Hungary,47.4925,19.0514
Shaoguan,China,24.8011,113.5927
Shanwei,China,22.7664,115.3331
Quezon City,Philippines,14.63,121.03
Rizhao,China,35.4164,119.4331
Kyiv,Ukraine,50.45,30.5233
Sanaa,Yemen,15.3483,44.2064
Meishan,China,30.0575,103.8381
Incheon,South Korea,37.4833,126.6333
Guatemala City,Guatemala,14.6099,-90.5252
Birmingham,United Kingdom,52.48,-1.9025
Zhongshan,China,22.5333,113.35
Ningde,China,26.6617,119.5228
Weihai,China,37.5,122.1
Daqing,China,46.5979,125.008
Bursa,Turkey,40.1833,29.05
Salvador,Brazil,-12.9747,-38.4767
Rome,Italy,41.8931,12.4828
Haikou,China,20.02,110.32
La Paz,Bolivia,-16.5,-68.15
Xiangtan,China,27.8431,112.9228
Pyongyang,North Korea,39.0194,125.7381
Minneapolis,United States,44.9635,-93.2678
Omdurman,Sudan,15.65,32.4833
Malang,Indonesia,-7.98,112.62
Mudanjiang,China,44.5861,129.5997
Stuttgart,Germany,48.7775,9.18
Brooklyn,United States,40.6501,-73.9496
Kaohsiung,Taiwan,22.615,120.2975
Guayaquil,Ecuador,-2.19,-79.8875
Lisbon,Portugal,38.7253,-9.15
Longyan,China,25.0881,117.0244
Tieling,China,42.2841,123.8365
Manchester,United Kingdom,53.4794,-2.2453
Baotou,China,40.6562,109.8345
Handan,China,36.6116,114.4894
Cawnpore,India,26.4499,80.3319
Dingxi,China,35.5806,104.6263
Nanping,China,26.6448,118.1728
Tampa,United States,27.9945,-82.4447
Zigong,China,29.3498,104.7645
Maracaibo,Venezuela,10.6333,-71.6333
Chaozhou,China,23.67,116.63
Mbuji-Mayi,Congo (Kinshasa),-6.15,23.6
Denver,United States,39.762,-104.8758
Gulou,China,26.0865,119.298
Weifang,China,36.7167,119.1
Huai'an,China,33.5058,119.1392
Zibo,China,36.7831,118.0497
Ankang,China,32.6877,109.0235
Baoshan,China,25.1211,99.169
Antananarivo,Madagascar,-18.9333,47.5167
Huludao,China,40.7094,120.8378
Munich,Germany,48.1375,11.575
Yanjiang,China,30.1256,104.6397
Santo Domingo,Dominican Republic,18.4764,-69.8933
Sanming,China,26.2658,117.6302
Tashkent,Uzbekistan,41.3111,69.2797
Longba,China,33.535,105.349
Yangjiang,China,21.8556,111.9627
Jiamusi,China,46.8081,130.3653
Luohe,China,33.583,114.0109
Lincang,China,23.8864,100.0871
Medellin,Colombia,6.2308,-75.5906
Xuanzhou,China,30.9475,118.7518
Yunfu,China,22.9242,112.0353
Shaoxing,China,30,120.5833
Yantai,China,37.3997,121.2664
Huizhou,China,23.1115,114.4152
Lishui,China,28.45,119.9167
Mirzapur,India,25.146,82.569
Hamburg,Germany,53.55,10
Guangyuan,China,32.4353,105.8398
Cali,Colombia,3.4206,-76.5222
Lusaka,Zambia,-15.4167,28.2833
Huangshi,China,30.2018,115.0326
Xining,China,36.6239,101.7787
Ouagadougou,Burkina Faso,12.3686,-1.5275
Daegu,South Korea,35.8717,128.6017
Fortaleza,Brazil,-3.7275,-38.5275
Yaounde,Cameroon,3.8667,11.5167
Jilin,China,43.8519,126.5481
Dandong,China,40.1167,124.3833
Zhuhai,China,22.2769,113.5678
Lianshan,China,40.7523,120.828
Yingkou,China,40.6653,122.2297
Antalya,Turkey,36.8874,30.7075
Nagpur,India,21.1497,79.0806
Queens,United States,40.7498,-73.7976
Accra,Ghana,5.55,-0.2
Bekasi,Indonesia,-6.2349,106.9923
Ghaziabad,India,28.67,77.42
Yuxi,China,24.3495,102.5432
Luoyang,China,34.6587,112.4245
Brisbane,Australia,-27.4678,153.0281
Anshun,China,26.2456,105.934
Depok,Indonesia,-6.394,106.8225
Shangzhou,China,33.868,109.9244
Huainan,China,32.4831,117.0164
Colombo,Sri Lanka,6.9344,79.8428
Kuaidamao,China,41.7302,125.9471
Baku,Azerbaijan,40.3667,49.8352
Fukuoka,Japan,33.5833,130.4
Yan'an,China,36.5952,109.4863
Jincheng,China,35.4906,112.8483
Vancouver,Canada,49.25,-123.1
Nantong,China,31.9829,120.8873
Tangerang,Indonesia,-6.1783,106.6319
Caracas,Venezuela,10.4806,-66.9036
Sanmenxia,China,34.7736,111.195
Laibin,China,23.7333,109.2333
Konya,Turkey,37.8667,32.4833
Manaus,Brazil,-3.1,-60.0167
Esfahan,Iran,32.6447,51.6675
Qinbaling,China,35.7278,107.64
Baltimore,United States,39.3051,-76.6144
Ma'anshan,China,31.6858,118.5101
Shengli,China,37.45,118.4667
Gaoping,China,30.7824,106.1281
Taizhou,China,28.6583,121.4221
Harare,Zimbabwe,-17.8292,31.0522
Kowloon,Hong Kong,22.3167,114.1833
Las Vegas,United States,36.2333,-115.2654
Havana,Cuba,23.1367,-82.3589
Perth,Australia,-31.9559,115.8606
Phnom Penh,Cambodia,11.5694,104.9211
Puning,China,23.2993,116.1586
Huaibei,China,33.9562,116.789
Qingyang,China,24.8141,118.5792
Haiphong,Vietnam,20.8651,106.6838
Chongzuo,China,22.4167,107.3667
Rawalpindi,Pakistan,33.6,73.0333
Yushan,China,31.3867,120.9766
St. Louis,United States,38.6359,-90.2451
Kumasi,Ghana,6.6667,-1.6167
Vadodara,India,22.3,73.2
Hezhou,China,24.4164,111.5478
Pingliang,China,35.5412,106.6819
Portland,United States,45.5371,-122.65
Vishakhapatnam,India,17.7042,83.2978
Gujranwala,Pakistan,32.1567,74.19
Baicheng,China,45.6148,122.832
Gaziantep,Turkey,37.0628,37.3792
Fushun,China,41.8708,123.8917
Riverside,United States,33.9381,-117.3949
Bamako,Mali,12.6458,-7.9922
Quito,Ecuador,-0.22,-78.5125
Minsk,Belarus,53.9,27.5667
Tijuana,Mexico,32.525,-117.0333
Bamenda,Cameroon,5.9614,10.1517
Boosaaso,Somalia,11.2886,49.1819
Indore,India,22.7167,75.8472
Sanliurfa,Turkey,37.1583,38.7917
Vienna,Austria,48.2083,16.3725
Karaj,Iran,35.8272,50.9489
Kananga,Congo (Kinshasa),-5.897,22.4488
Peshawar,Pakistan,34.0144,71.5675
Sapporo,Japan,43.0667,141.35
Ecatepec,Mexico,19.6097,-99.06
Pingxiang,China,27.6333,113.85
Orlando,United States,28.4773,-81.337
Aleppo,Syria,36.2,37.16
Sacramento,United States,38.5677,-121.4685
Almaty,Kazakhstan,43.2775,76.8958
San Juan,Puerto Rico,18.3985,-66.061
San Antonio,United States,29.4632,-98.5238
Yinchuan,China,38.4795,106.2254
Thane,India,19.1972,72.9722
Santos,Brazil,-23.9369,-46.325
Blantyre,Malawi,-15.7861,35.0058
Bucharest,Romania,44.4325,26.1039
Curitiba,Brazil,-25.4297,-49.2711
Multan,Pakistan,30.1978,71.4697
Tainan,Taiwan,22.9833,120.1833
Xiping,China,40.082,113.2981
Port Harcourt,Nigeria,4.8242,7.0336
Warsaw,Poland,52.23,21.0111
Jixi,China,45.2937,130.965
Saidu Sharif,Pakistan,34.75,72.3572
Liaoyang,China,41.2643,123.1772
Beihai,China,21.4667,109.1
Meru,Kenya,0.05,37.65
Brazzaville,Congo (Brazzaville),-4.2694,15.2714
Fuxin,China,42.0127,121.6486
Wuwei,China,37.9278,102.6329
Mersin,Turkey,36.8,34.6333
Bhopal,India,23.25,77.4167
Lubumbashi,Congo (Kinshasa),-11.6647,27.4794
Denpasar,Indonesia,-8.65,115.2167
Davao,Philippines,7.0667,125.6
Shuyangzha,China,34.1299,118.7734
Adana,Turkey,37,35.3213
Damascus,Syria,33.5131,36.2919
Brussels,Belgium,50.8467,4.3525
Hyderabad City,Pakistan,25.3792,68.3683
Diyarbakir,Turkey,37.91,40.24
San Jose,United States,37.3012,-121.848
Chinchvad,India,18.6186,73.8037
Montevideo,Uruguay,-34.8836,-56.1819
Pittsburgh,United States,40.4397,-79.9763
Shuozhou,China,39.3408,112.4292
Cincinnati,United States,39.1413,-84.506
Benxi,China,41.292,123.761
Baiyin,China,36.5448,104.1766
Mosul,Iraq,36.34,43.13
Manhattan,United States,40.7834,-73.9662
Caloocan City,Philippines,14.65,120.97
Kampala,Uganda,0.3136,32.5811
Patna,India,25.6,85.1
Tegucigalpa,Honduras,14.1,-87.2167
Cleveland,United States,41.4764,-81.6805
Sanzhou,China,30.82,108.4
Changshu,China,31.65,120.7333
Mecca,Saudi Arabia,21.4225,39.8233
Heihe,China,50.2458,127.4886
Jingdezhen,China,29.2942,117.2036
Conakry,Guinea,9.5092,-13.7122
Recife,Brazil,-8.05,-34.9
Indianapolis,United States,39.7771,-86.1458
Austin,United States,30.3005,-97.7522
Sangereng,Indonesia,-6.2889,106.7181
Kansas City,United States,39.1238,-94.5541
Zhongli,Taiwan,24.965,121.2168
Novosibirsk,Russia,55.0333,82.9167
Bilaspur,India,22.09,82.15
Semarang,Indonesia,-6.9667,110.4167
Ludhiana,India,30.91,75.85
Narayanganj,Bangladesh,23.62,90.5
Stockholm,Sweden,59.3294,18.0686
Chengtangcun,China,35.0833,117.15
Agra,India,27.18,78.02
Balandougou,Mali,13.3558,-9.5517
Agwar,India,27.18,78.02
Leon de los Aldama,Mexico,21.1167,-101.6833
Yopougon,Côte d'Ivoire,5.3167,-4.0667
Puebla,Mexico,19.0333,-98.1833
Madurai,India,9.9252,78.1198
Hebi,China,35.7497,114.2887
Cordoba,Argentina,-31.4167,-64.1833
Shiraz,Iran,29.61,52.5425
Jamshedpur,India,22.7925,86.1842
Tabriz,Iran,38.0814,46.3006
Huzhou,China,30.8925,120.0875
Columbus,United States,39.9862,-82.9855
Sofia,Bulgaria,42.7,23.33
Kawasaki,Japan,35.5167,139.7
San Jose,Costa Rica,9.9325,-84.08
Aba,Nigeria,5.1167,7.3667
Palembang,Indonesia,-2.9861,104.7556
Zhangjiajie,China,29.1255,110.4844
Kobe,Japan,34.69,135.1956
Jiaxing,China,30.7522,120.75
Charlotte,United States,35.2083,-80.8303
Guiping,China,23.4,110.0833
Lianjiang,China,21.6146,110.2794
Ximeicun,China,24.9633,118.3811
Jianguang,China,28.1958,115.7833
Yucheng,China,29.9888,103.0007
Panama City,Panama,8.9833,-79.5167
Xushan,China,30.1697,121.2665
Belem,Brazil,-1.4558,-48.5039
Virginia Beach,United States,36.7335,-76.0435
Leizhou,China,20.9147,110.0806
Gwangju,South Korea,35.1653,126.8486
Nasik,India,20,73.78
Porto Alegre,Brazil,-30.0331,-51.23
Valencia,Venezuela,10.1667,-68
Onitsha,Nigeria,6.1667,6.7833
Abu Dhabi,United Arab Emirates,24.4667,54.3667
Daejeon,South Korea,36.351,127.385
Zapopan,Mexico,20.7167,-103.4
Bronx,United States,40.8501,-73.8662
Yekaterinburg,Russia,56.8356,60.6128
Huazhou,China,32.6832,112.079
Kyoto,Japan,35.0117,135.7683
Jinhua,China,29.1046,119.6494
Amsterdam,Netherlands,52.3728,4.8936
Shuangyashan,China,46.6388,131.1545
Pizhou,China,34.3422,118.0097
El Kelaa des Srarhna,Morocco,32.0481,-7.4083
Dakar,Senegal,14.6928,-17.4467
Kharkiv,Ukraine,49.9925,36.2311
Yangshe,China,31.8775,120.5512
Guyuan,China,36.008,106.2782
Rui'an,China,27.778,120.6526
Khulna,Bangladesh,22.8167,89.55
Muscat,Oman,23.6139,58.5922
Wenling,China,28.3797,121.3718
Gaozhou,China,21.9135,110.8481
Faridabad,India,28.4167,77.3
Chizhou,China,30.6583,117.4849
Tel Aviv-Yafo,Israel,32.08,34.78
Ulaanbaatar,Mongolia,47.9203,106.9172
Goiania,Brazil,-16.6667,-49.25
Fuqing,China,25.7232,119.3735
Kayseri,Turkey,38.7225,35.4875
Wuzhong,China,37.9874,106.1919
Belgrade,Serbia,44.82,20.46
Pingdu,China,36.7833,119.9556
Milan,Italy,45.4669,9.19
Aurangabad,India,19.88,75.32
Copenhagen,Denmark,55.6761,12.5683
Yangquan,China,37.8576,113.5762
Yutan,China,28.3147,112.554
Huangshan,China,29.7132,118.3151
Auckland,New Zealand,-36.8406,174.74
Makassar,Indonesia,-5.1619,119.4362
Santiago,Dominican Republic,19.4572,-70.6889
Milwaukee,United States,43.0642,-87.9675
Rajkot,India,22.3,70.7833
Prague,Czechia,50.0875,14.4214
Samsun,Turkey,41.2903,36.3336
Liangshi,China,27.2578,111.7351
Barranquilla,Colombia,10.9833,-74.8019
Saitama,Japan,35.8614,139.6456
Guarulhos,Brazil,-23.4628,-46.5328
Al Basrah,Iraq,30.515,47.81
Mandalay,Myanmar,21.9831,96.0844
Juarez,Mexico,31.7386,-106.487
Xintai,China,35.91,117.78
Wusong,China,30.9333,117.7667
Meerut,India,28.98,77.71
Yushu,China,44.8249,126.5451
Rongcheng,China,26.2312,104.0966
Huazhou,China,21.654,110.6294
Adelaide,Australia,-34.9275,138.6
Baishan,China,41.9377,126.4179
Dayan,China,26.8808,100.2208
Haicheng,China,40.8523,122.7474
Tripoli,Libya,32.8872,13.1914
Jiangyin,China,31.9087,120.2653
Yicheng,China,31.3697,119.8239
Huaiyin,China,33.5819,119.028
Porto,Portugal,41.1621,-8.622
Cacuaco,Angola,-8.8053,13.2444
Soweto,South Africa,-26.2678,27.8585
Rosario,Argentina,-32.9575,-60.6394
Canagatan,Philippines,18,121.8
Helsinki,Finland,60.1708,24.9375
Jabalpur,India,23.1667,79.9333
Providence,United States,41.823,-71.4187
Rucheng,China,32.3852,120.5634
Nizhniy Novgorod,Russia,56.3269,44.0075
Ahvaz,Iran,31.3203,48.6692
Jepara,Indonesia,-6.5333,110.6667
Shaoyang,China,32.9387,119.8404
Comayaguela,Honduras,14.0981,-87.2097
Laiwu,China,36.1833,117.6667
Sharjah,United Arab Emirates,25.3575,55.3908
Kalamboli,India,19.2333,73.1333
Jingling,China,30.6667,113.1667
Kazan,Russia,55.7964,49.1089
Suwon,South Korea,37.2667,127.0167
Yongcheng,China,33.9317,116.4459
Sumedang,Indonesia,-6.84,107.9208
Calgary,Canada,51.05,-114.0667
Can Tho,Vietnam,10.0333,105.7833
Yiwu,China,29.3081,120.0698
Bagam,Indonesia,1.0833,104.0333
Beidao,China,34.602,105.918
Vasai,India,19.47,72.8
Xiangshui,China,26.5964,104.8314
Jacksonville,United States,30.3322,-81.6749
Akcaabat,Turkey,41.0167,39.55
Campinas,Brazil,-22.9058,-47.0608
Dadukou,China,26.5849,101.7149
Mombasa,Kenya,-4.05,39.6667
Lingcheng,China,22.7,110.35
Najafgarh,India,28.6092,76.9798
Vila Velha,Brazil,3.2167,-51.2167
Gazipura,Bangladesh,23.9889,90.375
Chelyabinsk,Russia,55.15,61.4
Varanasi,India,25.3189,83.0128
Xinyu,China,27.795,114.9242
Qom,Iran,34.64,50.8764
Hargeysa,Somalia,9.5631,44.0675
Zhangye,China,38.9355,100.4553
Hiroshima,Japan,34.3914,132.4519
Maiduguri,Nigeria,11.8333,13.15
Chiang Mai,Thailand,18.7953,98.9986
Doha,Qatar,25.2867,51.5333
Maputo,Mozambique,-25.9667,32.5833
Mbandaka,Congo (Kinshasa),0.0478,18.2558
Pikine,Senegal,14.75,-17.4
Medina,Saudi Arabia,24.47,39.61
Srinagar,India,34.09,74.79
Omsk,Russia,54.9667,73.3833
Dublin,Ireland,53.35,-6.2603
Liaoyuan,China,42.8976,125.1381
Cilacap,Indonesia,-7.7167,109.017
Yingtan,China,28.2333,117
Bandar Lampung,Indonesia,-5.45,105.2667
Samara,Russia,53.2028,50.1408
Guankou,China,28.1417,113.625
Ulsan,South Korea,35.55,129.3167
Dhanbad,India,23.7998,86.4305
Dingzhou,China,38.5158,114.9845
Lianyuan,China,27.6961,111.6659
Rongcheng,China,29.8239,112.9019
Kaiyuan,China,36.0656,113.8153
Nay Pyi Taw,Myanmar,19.7475,96.115
Zhuji,China,29.7169,120.2314
Kigali,Rwanda,-1.9536,30.0606
Bukavu,Congo (Kinshasa),-2.5,28.8667
Leiyang,China,26.4179,112.8457
Bafoussam,Cameroon,5.4667,10.4167
Yichun,China,47.7235,128.8893
Benin City,Nigeria,6.3333,5.6222
Rostov,Russia,47.2333,39.7
Xiantao,China,30.3833,113.4
Amritsar,India,31.64,74.86
Callao,Peru,-12.0333,-77.1333
Salt Lake City,United States,40.7776,-111.9311
Aligarh,India,27.88,78.08
Shagamu,Nigeria,6.8333,3.65
Yingchuan,China,34.1511,113.4733
Ciudad Nezahualcoyotl,Mexico,19.4081,-99.0186
Tbilisi,Georgia,41.7225,44.7925
Guwahati,India,26.1722,91.7458
Ufa,Russia,54.7261,55.9475
Fes,Morocco,34.0433,-5.0033
Sao Luis,Brazil,-2.5283,-44.3044
Bien Hoa,Vietnam,10.95,106.8167
Sevilla,Spain,37.24,-5.99
N'Djamena,Chad,12.11,15.05
Mexicali,Mexico,32.6633,-115.4678
Nezahualcoyotl,Mexico,19.4006,-99.0148
Ikare,Nigeria,7.5167,5.75
Nashville,United States,36.1715,-86.7842
Tamale,Ghana,9.4075,-0.8533
Xibeijie,China,39.737,98.5049
Yuyao,China,30.0372,121.1546
Haora,India,22.58,88.3294
Hanchuan,China,30.652,113.8274
Gongzhuling,China,43.5036,124.8088
Krasnoyarsk,Russia,56.0089,92.8719
Cologne,Germany,50.9364,6.9528
Bujumbura,Burundi,-3.3833,29.3667
Bishkek,Kyrgyzstan,42.8747,74.6122
Zhufeng,China,36,119.4167
Sao Goncalo,Brazil,-22.8269,-43.0539
Yerevan,Armenia,40.1814,44.5144
Ezhou,China,30.3972,114.8842
Nur-Sultan,Kazakhstan,51.1472,71.4222
Tongjin,South Korea,37.2333,127.2
Nouakchott,Mauritania,18.0858,-15.9785
Xiashi,China,30.5333,120.6833
Ranchi,India,23.36,85.33
Taixing,China,32.1724,120.0142
Vereeniging,South Africa,-26.6736,27.9319
Gwalior,India,26.2215,78.178
Zhongwei,China,37.5139,105.1884
Goyang,South Korea,37.65,126.8
Oslo,Norway,59.9133,10.7389
Vijayawada,India,16.5193,80.6305
Chandigarh,India,30.75,76.78
Edmonton,Canada,53.5344,-113.4903
Sendai,Japan,38.2682,140.8694
Raleigh,United States,35.8324,-78.6429
Mizhou,China,35.99,119.3801
Tunis,Tunisia,36.8064,10.1817
Xishan,China,27.6609,113.4946
Barquisimeto,Venezuela,10.0678,-69.3467
Hegang,China,47.3139,130.2775
Voronezh,Russia,51.6717,39.2106
Perm,Russia,58.0139,56.2489
Changwon,South Korea,35.2708,128.6631
Fangchenggang,China,21.6,108.3
Shouguang,China,36.8833,118.7333
Bogor,Indonesia,-6.5966,106.7972
Cartagena,Colombia,10.4,-75.5
Matola,Mozambique,-25.9667,32.4667
Jodhpur,India,26.28,73.02
Memphis,United States,35.1087,-89.9663
Ogbomoso,Nigeria,8.1333,4.25
Rangapukur,Bangladesh,25.56,89.25
Managua,Nicaragua,12.1544,-86.2738
Sanya,China,18.2533,109.5036
Shymkent,Kazakhstan,42.3167,69.5958
Wutong,China,30.6326,120.5474
Niamey,Niger,13.515,2.1175
Shubra al Khaymah,Egypt,30.1286,31.2422
Linhai,China,28.8523,121.1409
Denizli,Turkey,37.7667,29.0833
Maceio,Brazil,-9.6658,-35.735
Monrovia,Liberia,6.3133,-10.8014
Wafangdian,China,39.6271,121.9972
Zhongxiang,China,31.169,112.5853
Louisville,United States,38.1663,-85.6485
Odesa,Ukraine,46.4775,30.7326
Thu Duc,Vietnam,10.8266,106.7609
Volgograd,Russia,48.7086,44.5147
Islamabad,Pakistan,33.6931,73.0639
Port-au-Prince,Haiti,18.5333,-72.3333
Xinyi,China,22.3559,110.9369
Raipur,India,21.25,81.63
Arequipa,Peru,-16.4,-71.5333
Richmond,United States,37.5295,-77.4756
Zaoyang,China,32.1287,112.7581
Buffalo,United States,42.9018,-78.8487
Shuizhai,China,33.4433,114.8994
Xingyi,China,25.091,104.9011
Kota,India,25.18,75.83
Quetta,Pakistan,30.1833,67
Kathmandu,Nepal,27.7172,85.324
Ottawa,Canada,45.4247,-75.695
Lilongwe,Malawi,-13.9833,33.7833
Asmara,Eritrea,15.3228,38.925
Freetown,Sierra Leone,8.4844,-13.2344
Vientiane,Laos,17.9667,102.6
Jerusalem,Israel,31.7784,35.2066
Riga,Latvia,56.9489,24.1064
Bangui,Central African Republic,4.3733,18.5628
Dushanbe,Tajikistan,38.5367,68.78
Lome,Togo,6.1319,1.2228
Ashgabat,Turkmenistan,37.95,58.3833
Zagreb,Croatia,45.8167,15.9833
Libreville,Gabon,0.3903,9.4542
Cotonou,Benin,6.3667,2.4333
Pretoria,South Africa,-25.7461,28.1881
Vilnius,Lithuania,54.6872,25.28
Winnipeg,Canada,49.8844,-97.1464
Quebec City,Canada,46.8139,-71.2081
Chisinau,Moldova,47.0228,28.8353
Port Moresby,Papua New Guinea,-9.4789,147.1494
Skopje,Macedonia,41.9961,21.4317
Djibouti,Djibouti,11.5883,43.145
Gaza,Gaza Strip,31.5069,34.456
Kingston,Jamaica,17.9714,-76.7931
Rabat,Morocco,34.0209,-6.8416
San Salvador,El Salvador,13.6989,-89.1914
The Hague,Netherlands,52.08,4.31
Asuncion,Paraguay,-25.3,-57.6333
Juba,South Sudan,4.85,31.6
Maseru,Lesotho,-29.31,27.48
Bissau,Guinea-Bissau,11.85,-15.5667
Valletta,Malta,35.8983,14.5125
Bratislava,Slovakia,48.1439,17.1097
Kitchener,Canada,43.4186,-80.4728
Manama,Bahrain,26.225,50.5775
Tallinn,Estonia,59.4372,24.7453
Beirut,Lebanon,33.8869,35.5131
Cape Town,South Africa,-33.9253,18.4239
Tirana,Albania,41.3289,19.8178
Sarajevo,Bosnia and Herzegovina,43.8564,18.4131
Wellington,New Zealand,-41.2889,174.7772
Banjul,The Gambia,13.4531,-16.5775
Halifax,Canada,44.6475,-63.5906
Canberra,Australia,-35.2931,149.1269
Yamoussoukro,Côte d'Ivoire,6.8161,-5.2742
Victoria,Canada,48.4283,-123.3647
Nicosia,Cyprus,35.1725,33.365
Windhoek,Namibia,-22.57,17.0836
Saint-Denis,Reunion,-20.8789,55.4481
Porto-Novo,Benin,6.4972,2.605
Sucre,Bolivia,-19.0475,-65.26
Ljubljana,Slovenia,46.0514,14.5061
Nassau,The Bahamas,25.0781,-77.3386
Bloemfontein,South Africa,-29.1167,26.2167
Fort-de-France,Martinique,14.6,-61.0667
New Delhi,India,28.6139,77.209
Gaborone,Botswana,-24.6581,25.9122
Paramaribo,Suriname,5.8522,-55.2039
Dili,Timor-Leste,-8.5536,125.5783
Dodoma,Tanzania,-6.1731,35.7419
Georgetown,Guyana,6.8058,-58.1508
Gibraltar,Gibraltar,36.1333,-5.35
Malabo,Equatorial Guinea,3.75,8.7833
Suva,Fiji,-18.1416,178.4419
Noumea,New Caledonia,-22.2758,166.458
Pristina,Kosovo,42.6633,21.1622
Male,Maldives,4.1753,73.5089
Port Louis,Mauritius,-20.1644,57.5042
Podgorica,Montenegro,42.4413,19.2629
Willemstad,Curaçao,12.108,-68.935
Bern,Switzerland,46.9481,7.4475
Gitega,Burundi,-3.4283,29.925
Reykjavik,Iceland,64.1467,-21.94
Luxembourg,Luxembourg,49.6117,6.1319
Papeete,French Polynesia,-17.5334,-149.5667
Praia,Cabo Verde,14.918,-23.509
Sri Jayewardenepura Kotte,Sri Lanka,6.9108,79.8878
Bridgetown,Barbados,13.0975,-59.6167
Moroni,Comoros,-11.699,43.256
Thimphu,Bhutan,27.4722,89.6361
Mbabane,Swaziland,-26.3208,31.1617
Honiara,Solomon Islands,-9.4319,159.9556
Port of Spain,Trinidad and Tobago,10.6667,-61.5167
Castries,Saint Lucia,14.0167,-60.9833
Putrajaya,Malaysia,2.93,101.69
Cayenne,French Guiana,4.933,-52.33
Sao Tome,Sao Tome and Principe,0.3361,6.7306
Port-Vila,Vanuatu,-17.7333,168.3167
Bandar Seri Begawan,Brunei,4.8903,114.9422
Monaco,Monaco,43.7333,7.4167
Apia,Samoa,-13.8333,-171.75
Tarawa,Kiribati,1.3382,173.0176
Oranjestad,Aruba,12.5186,-70.0358
Saint Helier,Jersey,49.1858,-2.11
Mamoudzou,Mayotte,-12.7794,45.2272
Majuro,Marshall Islands,7.0833,171.3833
Douglas,Isle Of Man,54.145,-4.482
George Town,Cayman Islands,19.2866,-81.3744
Victoria,Seychelles,-4.6167,55.45
Kingstown,Saint Vincent and the Grenadines,13.1578,-61.225
Andorra la Vella,Andorra,42.5,1.5
Saint John's,Antigua and Barbuda,17.1167,-61.85
Nuku`alofa,Tonga,-21.1333,-175.2
Nuuk,Greenland,64.1814,-51.6942
Belmopan,Belize,17.2514,-88.7669
Roseau,Dominica,15.3014,-61.3883
Basseterre,Saint Kitts and Nevis,17.3,-62.7333
Torshavn,Faroe Islands,62,-6.7833
Road Town,British Virgin Islands,18.4167,-64.6167
Pago Pago,American Samoa,-14.274,-170.7046
Grand Turk,Turks and Caicos Islands,21.4664,-71.136
Marigot,Saint Martin,18.0706,-63.0847
Palikir,Federated States of Micronesia,6.9178,158.185
Funafuti,Tuvalu,-8.5167,179.2
Vaduz,Liechtenstein,47.141,9.521
Lobamba,Swaziland,-26.4465,31.2064
Avarua,Cook Islands,-21.207,-159.771
Saint George's,Grenada,12.05,-61.75
San Marino,San Marino,43.9346,12.4473
Tifariti,Morocco,26.158,-10.567
Philipsburg,Sint Maarten,18.0237,-63.0458
Capitol Hill,Northern Mariana Islands,15.2137,145.7546
Stanley,Falkland Islands (Islas Malvinas),-51.7,-57.85
Hamilton,Bermuda,32.2942,-64.7839
Vatican City,Vatican City,41.904,12.453
Alofi,Niue,-19.056,-169.921
Basse-Terre,Guadeloupe,16.0104,-61.7055
Hagta,Guam,13.4745,144.7504
Jamestown,"Saint Helena, Ascension, and Tristan da Cunha",-15.9251,-5.7179
Brades,Montserrat,16.7928,-62.2106
Yaren,Nauru,-0.5477,166.9209
Gustavia,Saint Barthelemy,17.8958,-62.8508
Ngerulmud,Palau,7.5006,134.6242
Saint-Pierre,Saint Pierre and Miquelon,46.7811,-56.1764
The Valley,Anguilla,18.2167,-63.05
Mata-Utu,Wallis and Futuna,-13.2825,-176.1736
Kingston,Norfolk Island,-29.0569,167.9617
Longyearbyen,Svalbard,78.2167,15.6333
Adamstown,Pitcairn Islands,-25.0667,-130.0833
Flying Fish Cove,Christmas Island,-10.4167,105.7167
King Edward Point,South Georgia And South Sandwich Islands,-54.2833,-36.5
Bareilly,India,28.364,79.415
Quang Ha,Vietnam,15.9333,108.2667
Domaa-Ahenkro,Ghana,7.2833,-2.8833
Oklahoma City,United States,35.4676,-97.5136
Xingcheng,China,24.1681,115.6669
Dongtai,China,32.8534,120.3037
Yingcheng,China,24.1878,113.4042
Chiba,Japan,35.6073,140.1064
Al Mijlad,Sudan,11.0339,27.74
Pekanbaru,Indonesia,0.5092,101.4453
Luocheng,China,22.7645,111.5745
Dnipro,Ukraine,48.4675,35.04
Danyang,China,31.9948,119.575
Gode,Ethiopia,5.9527,43.5516
Natal,Brazil,-6.9838,-60.2699
Nada,China,19.5,109.5833
Zamboanga City,Philippines,6.9042,122.0761
Kirkuk,Iraq,35.4667,44.3167
Bridgeport,United States,41.1918,-73.1954
Naples,Italy,40.8333,14.25
Wuchuan,China,21.4283,110.7749
Huilong,China,31.8131,121.6574
Morelia,Mexico,19.7683,-101.1894
Malaga,Spain,36.7194,-4.42
Cebu City,Philippines,10.32,123.75
Al Mansurah,Egypt,31.05,31.3833
Coimbatore,India,11.0168,76.9558
Santo Domingo Este,Dominican Republic,18.4855,-69.8734
Setagaya,Japan,35.6466,139.6532
Songnam,South Korea,37.4333,127.15
Taishan,China,22.2486,112.785
Teresina,Brazil,-5.0949,-42.8042
Solapur,India,17.68,75.92
Tangier,Morocco,35.7767,-5.8039
Kermanshah,Iran,34.3142,47.065
Krasnodar,Russia,45.0333,38.9667
Baidoa,Somalia,3.1167,43.65
Gaalkacyo,Somalia,6.7697,47.4308
Anqiu,China,36.3619,119.1072
Feicheng,China,36.186,116.772
Seberang Jaya,Malaysia,5.4,100.4667
El Alto,Bolivia,-16.5047,-68.1633
Kitakyushu,Japan,33.8833,130.8833
Meishan,China,34.1736,112.839
Khartoum North,Sudan,15.6333,32.6333
Kisangani,Congo (Kinshasa),0.5153,25.1911
Aguascalientes,Mexico,21.876,-102.296
Marrakech,Morocco,31.63,-8.0089
Donetsk,Ukraine,48.0028,37.8053
Trujillo,Peru,-8.112,-79.0288
New Orleans,United States,30.0687,-89.9288
Taihe,China,30.8706,105.3784
Trichinopoly,India,10.7903,78.7047
Xin'an,China,34.3662,118.3369
Taihecun,China,45.768,131.0063
Kashgar,China,39.4681,75.9938
Naucalpan de Juarez,Mexico,19.4753,-99.2378
Cankaya,Turkey,39.9244,32.8856
Santiago de Cuba,Cuba,20.0217,-75.8294
Owerri,Nigeria,5.4833,7.0333
Padang,Indonesia,-0.95,100.3531
Qingzhou,China,36.6967,118.4797
Lichuan,China,30.2965,108.9378
Santiago del Estero,Argentina,-27.7833,-64.2667
Daye,China,30.1003,114.9699
Hengzhou,China,22.6896,109.2674
Fort Worth,United States,32.7817,-97.3474
Hartford,United States,41.7661,-72.6834
Esenyurt,Turkey,41.047,28.658
Campo Grande,Brazil,-20.4839,-54.615
Zhuanghe,China,39.6896,122.9664
Bobo-Dioulasso,Burkina Faso,11.1833,-4.2833
Ad Dammam,Saudi Arabia,26.4333,50.1
Quzhou,China,28.9545,118.8763
Lhasa,China,29.6534,91.1719
Jiaozhou,China,36.2481,119.9625
Bunia,Congo (Kinshasa),1.5667,30.25
Taguig City,Philippines,14.52,121.05
Cancun,Mexico,21.1606,-86.8475
Merida,Mexico,20.97,-89.62
Yangchun,China,22.1717,111.7846
Dengtalu,China,36.1386,114.1066
Moradabad,India,28.8389,78.7769
Antipolo,Philippines,14.5842,121.1763
Abeokuta,Nigeria,7.1608,3.3483
Bucheon,South Korea,37.5,126.7833
Zhoushan,China,29.9887,122.2049
Tiruppur,India,11.1085,77.3411
Natal,Brazil,-5.7833,-35.2
Chihuahua,Mexico,28.6353,-106.0889
Klang,Malaysia,3.0333,101.45
As Sulaymaniyah,Iraq,35.5572,45.4356
Gurgaon,India,28.456,77.029
Turin,Italy,45.0792,7.6761
Tucson,United States,32.1541,-110.8787
Hai'an,China,32.532,120.4604
Ar Ramadi,Iraq,33.4258,43.2992
Laiyang,China,36.9758,120.7136
Sale,Morocco,34.0333,-6.8
Jalandhar,India,31.2569,75.4432
Marseille,France,43.2964,5.37
Bucaramanga,Colombia,7.1333,-73
Kaifeng Chengguanzhen,China,34.8519,114.3481
Ikeja,Nigeria,6.6186,3.3426
Eskisehir,Turkey,39.7767,30.5206
Saltillo,Mexico,25.4231,-100.9919
Gaomi,China,36.3833,119.75
Liverpool,United Kingdom,53.4075,-2.9919
Ipoh,Malaysia,4.5972,101.075
Oran,Algeria,35.6969,-0.6331
Portsmouth,United Kingdom,50.8058,-1.0872
Southampton,United Kingdom,50.9025,-1.4042
Hermosillo,Mexico,29.0989,-110.9542
Cochabamba,Bolivia,-17.3833,-66.1667
Weichanglu,China,37.1792,119.9333
Shache,China,38.4261,77.25
Wuxi,China,26.5895,111.8481
Leping,China,28.9632,117.1203
Hailun,China,47.4585,126.9632
Macheng,China,31.1817,115.0189
Akure,Nigeria,7.25,5.195
Ilorin,Nigeria,8.5,4.55
Yuci,China,37.6823,112.7281
Saratov,Russia,51.5333,46.0167
Erbil,Iraq,36.1912,44.0092
Iguacu,Brazil,-22.74,-43.47
Pasig City,Philippines,14.575,121.0833
Dehui,China,44.5333,125.7
Kalkaji Devi,India,28.5485,77.2513
Bhubaneshwar,India,20.27,85.84
Honolulu,United States,21.3294,-157.846
Tongchuan,China,34.9057,108.9422
Cheongju,South Korea,36.6333,127.4833
Chengxiang,China,31.4515,121.1043
Thessaloniki,Greece,40.6403,22.9347
Warri,Nigeria,5.5167,5.75
Sakai,Japan,34.5733,135.4831
Pointe-Noire,Congo (Brazzaville),-4.8,11.85
Rongjiawan,China,29.1409,113.1087
Mediouna,Morocco,33.45,-7.51
Butterworth,Malaysia,5.3992,100.3639
Renqiu,China,38.7094,116.1008
Xindi,China,29.8182,113.4653
Bhayandar,India,19.29,72.85
Wu'an,China,36.6941,114.1847
Sao Bernardo do Campo,Brazil,-23.7,-46.55
Mandvi,India,19.3,72.85
Barinas,Venezuela,8.6333,-70.2
Zijinglu,China,34.7513,112.9854
Gaoyou,China,32.7847,119.4432
Culiacan,Mexico,24.8069,-107.3939
Hejian,China,38.4451,116.0897
Yiyang,China,26.4103,112.3913
Puxi,China,35.2125,114.735
Androtsy,Madagascar,-24.1,46.3
McAllen,United States,26.2252,-98.2467
Qingping,China,34.538,113.3796
Omaha,United States,41.2627,-96.0529
Joao Pessoa,Brazil,-7.12,-34.88
Dongyang,China,29.2785,120.2282
Queretaro,Mexico,20.5875,-100.3928
Krakow,Poland,50.0614,19.9372
George Town,Malaysia,5.4144,100.3292
Abaete,Brazil,-19.1583,-45.4522
Palermo,Colombia,2.8917,-75.4375
Valencia,Spain,39.47,-0.3764
Xigaze,China,29.25,88.8833
El Paso,United States,31.8476,-106.43
Seyhan,Turkey,36.9831,35.3328
Niigata,Japan,37.9161,139.0364
Hempstead,United States,40.6629,-73.6089
Leeds,United Kingdom,53.8003,-1.5497
Hamamatsu,Japan,34.7108,137.7275
Bagcilar,Turkey,41.0344,28.8564
Xiangxiang,China,27.7389,112.5223
Bilbao,Spain,43.2569,-2.9236
Chaohucun,China,31.6783,117.7353
Fuyang,China,30.0553,119.95
Homs,Syria,34.7333,36.7167
Kucukcekmece,Turkey,41,28.8
Lubango,Angola,-14.9167,13.5
Zouping,China,36.8625,117.7424
Khujand,Tajikistan,40.2833,69.6333
San Luis Potosi,Mexico,22.1511,-100.9761
Nottingham,United Kingdom,52.9533,-1.15
Cencheng,China,22.9297,111.0186
Dali,China,25.6808,100.3003
Hamhung,North Korea,39.9167,127.5333
Korla,China,41.7259,86.1746
Rajshahi,Bangladesh,24.3667,88.6
Erzurum,Turkey,39.9086,41.2769
Frankfurt,Germany,50.1106,8.6822
Al `Ayn,United Arab Emirates,24.2075,55.7447
Songzi,China,30.1772,111.7732
Albuquerque,United States,35.1054,-106.6465
Patiala,India,30.34,76.38
Laixi,China,36.8667,120.5333
Bahawalpur,Pakistan,29.3956,71.6836
Zhongba,China,31.7761,104.7406
Kaduna,Nigeria,10.5167,7.4333
Qingnian,China,36.8494,115.7061
San Pedro Sula,Honduras,15.5,-88.0333
Qamdo,China,31.1375,97.1777
Xinhualu,China,34.3962,113.7249
Nerima,Japan,35.7355,139.6517
Guangshui,China,31.6189,113.8229
Pietermaritzburg,South Africa,-29.6167,30.3833
Baardheere,Somalia,2.3333,42.2833
Tlajomulco de Zuniga,Mexico,20.4736,-103.4431
Samarinda,Indonesia,-0.5,117.1378
Changhua,Taiwan,24.0667,120.5333
Sizhan,China,39.0099,106.3694
Ciudad Guayana,Venezuela,8.3667,-62.65
Cucuta,Colombia,7.8942,-72.5039
Dhulia,India,20.8997,74.7697
Burco,Somalia,9.5279,45.5345
Licheng,China,31.4174,119.4786
Ota-ku,Japan,35.5613,139.716
Thiruvananthapuram,India,8.4875,76.9525
Tyumen,Russia,57.15,65.5333
Nampula,Mozambique,-15.1167,39.2667
Zaporizhzhia,Ukraine,47.85,35.1175
Kyaukse,Myanmar,21.6131,96.1303
Chengguan,China,35.5256,113.6976
Kumamoto,Japan,32.8031,130.7078
Nehe,China,48.48,124.8738
Osogbo,Nigeria,7.7667,4.5667
Cabinda,Angola,-5.56,12.19
Kerman,Iran,30.2833,57.0833
Zunhua,China,40.1881,117.9593
Rochester,United States,43.168,-77.6162
Valenzuela,Philippines,14.7,120.98
Orumiyeh,Iran,37.5486,45.0675
Wugang,China,26.7345,110.6293
Shuangqiao,China,35.0833,112.5833
Tshikapa,Congo (Kinshasa),-6.4167,20.8
Sao Jose dos Campos,Brazil,-23.1789,-45.8869
Comodoro Rivadavia,Argentina,-45.8647,-67.4808
Cagayan de Oro,Philippines,8.4833,124.65
Tondo,Philippines,14.617,120.967
Langzhong,China,31.5504,105.9938
Qian'an,China,40.0059,118.6973
Lviv,Ukraine,49.8425,24.0322
Sarasota,United States,27.3387,-82.5432
Reynosa,Mexico,26.0922,-98.2778
Santo Andre,Brazil,-23.6572,-46.5333
An Najaf,Iraq,32,44.33
Sagamihara,Japan,35.5667,139.3667
Guli,China,28.9008,120.0284
Mississauga,Canada,43.6,-79.65
Concepcion,Chile,-36.8282,-73.0514
Okayama,Japan,34.65,133.9167
Anlu,China,31.2575,113.6783
Mwanza,Tanzania,-2.5167,32.9
Fresno,United States,36.783,-119.7939
Changsha,China,22.3762,112.6877
Torreon,Mexico,25.5394,-103.4486
Shihezi,China,44.3054,86.0804
Enugu,Nigeria,6.4528,7.5111
Jaboatao,Brazil,-8.1803,-35.0014
Tulsa,United States,36.1283,-95.9042
Yanggok,South Korea,37.6333,127.2167
Yatou,China,37.1653,122.4867
Edogawa,Japan,35.7066,139.8683
Allentown,United States,40.5961,-75.4756
Ribeirao Preto,Brazil,-21.1783,-47.8067
Xichang,China,27.8983,102.2706
Latakia,Syria,35.5167,35.7833
Bhiwandi,India,19.2967,73.0631
City of Paranaque,Philippines,14.47,121.02
Dasmarinas,Philippines,14.3294,120.9367
Dayton,United States,39.7805,-84.2003
Saharanpur,India,29.964,77.546
Warangal,India,17.9689,79.5941
Soledad,Colombia,10.9167,-74.75
Osasco,Brazil,-23.5328,-46.7919
Dashiqiao,China,40.6328,122.5021
Birmingham,United States,33.5279,-86.7971
Nampo,North Korea,38.7333,125.4
Shiliguri,India,26.71,88.43
Banjarmasin,Indonesia,-3.32,114.5925
Sha Tin,Hong Kong,22.3802,114.1898
Salem,India,11.65,78.15
General Santos,Philippines,6.1167,125.1667
Cocody,Côte d'Ivoire,5.35,-3.9667
Hamah,Syria,35.1333,36.75
Pendik,Turkey,40.8747,29.235
Bacoor,Philippines,14.4624,120.9645
Vellore,India,12.9165,79.1325
Shishi,China,24.7355,118.6434
Guadalupe,Mexico,25.6775,-100.2597
Adachi,Japan,35.7749,139.8044
Qianxi,China,27.0284,106.0327
Tolyatti,Russia,53.5089,49.4222
Macau,Macau,22.2006,113.5461
Bauchi,Nigeria,10.3158,9.8442
Hamilton,Canada,43.2567,-79.8692
Lodz,Poland,51.7769,19.4547
Miluo Chengguanzhen,China,28.8049,113.0745
Gaizhou,China,40.4019,122.3499
Karbala',Iraq,32.6167,44.0333
Leling,China,37.7333,117.2167
Jianshe,China,34.2189,113.7693
Shizuoka,Japan,34.9756,138.3828
Charleston,United States,32.8168,-79.9687
Jingcheng,China,32.0058,120.2547
Kochi,India,9.97,76.28
Mar del Plata,Argentina,-38,-57.55
Cape Coral,United States,26.6443,-81.9957
Tasikmalaya,Indonesia,-7.3161,108.1975
Rasht,Iran,37.2808,49.5831
Xinmin,China,41.9952,122.8224
Shanhu,China,29.5908,120.8176
Zhongshu,China,27.8116,106.4133
Gorakhpur,India,26.7637,83.4039
Zaragoza,Spain,41.65,-0.8833
Wroclaw,Poland,51.11,17.0325
Acapulco de Juarez,Mexico,16.8636,-99.8825
Bahar,Iran,34.9072,48.4414
Kumul,China,42.8193,93.5151
Murcia,Spain,37.9861,-1.1303
Pinghu,China,30.7005,121.0104
Palermo,Italy,38.1157,13.3613
Guankou,China,30.9933,103.624
Tlaquepaque,Mexico,20.6167,-103.3167
Songyang,China,34.4603,113.028
Ch'ongjin,North Korea,41.7833,129.7667
Puyang Chengguanzhen,China,35.7004,114.98
Qionghu,China,28.8417,112.3595
Zhaodong,China,46.0635,125.9773
Narela,India,28.8527,77.0929
Huambo,Angola,-12.7767,15.7347
Wenchang,China,31.054,116.9507
Villavicencio,Colombia,4.15,-73.6333
Shulan,China,44.4079,126.9429
Tlalnepantla,Mexico,19.5367,-99.1947
Catia La Mar,Venezuela,10.6,-67.0333
Sargodha,Pakistan,32.0836,72.6711
Al Hufuf,Saudi Arabia,25.3833,49.5833
Durango,Mexico,24.025,-104.6675
Jalingo,Nigeria,8.9195,11.3264
Bouake,Côte d'Ivoire,7.6833,-5.0167
Mazatlan,Mexico,23.2167,-106.4167
San Jose del Monte,Philippines,14.8139,121.0453
Ansan,South Korea,37.3167,126.8333
Abomey-Calavi,Benin,6.4486,2.3556
Lingbao Chengguanzhen,China,34.5221,110.8786
Hwasu-dong,South Korea,37.1997,126.8314
Sialkot City,Pakistan,32.4925,74.5311
Hue,Vietnam,16.4667,107.5792
Bulawayo,Zimbabwe,-20.17,28.58
Xiping,China,25.6005,103.8166
Sanhe,China,39.9808,117.0701
Ch'onan,South Korea,36.8167,127.1667
Contagem,Brazil,-19.9319,-44.0539
Jieshou,China,33.2605,115.3618
Selcuklu,Turkey,37.8814,32.4922
Erer Sata,Ethiopia,9.5667,41.3833
Honcho,Japan,35.6946,139.9826
Dusseldorf,Germany,51.2333,6.7833
Izhevsk,Russia,56.85,53.2167
Guntur,India,16.3008,80.4428
Guixi,China,28.2861,117.2083
Sorocaba,Brazil,-23.5017,-47.4581
Yildirim,Turkey,40.11,29.0821
Petaling Jaya,Malaysia,3.0972,101.6444
Tengyue,China,25.0208,98.4972
Wuxue,China,29.8518,115.5539
Rasulpur,India,28.57,77.32
Bhavnagar,India,21.76,72.15
Brahmapur,India,19.315,84.7941
Qufu,China,35.6,116.9833
Gaobeidian,China,39.3257,115.8678
Ruiming,China,25.8833,116.0333
Columbia,United States,34.0378,-80.9036
Concord,United States,37.9722,-122.0016
Noida,India,28.57,77.32
Gold Coast,Australia,-28.0167,153.4
Xinshi,China,31.0236,113.1079
Ta`izz,Yemen,13.5789,44.0219
Aracaju,Brazil,-10.9167,-37.05
Jeonju,South Korea,35.8167,127.15
Bhangar,India,22.58,88.42
Jin'e,China,29.3395,105.2868
Barnaul,Russia,53.3333,83.75
Makati City,Philippines,14.5567,121.0214
Rotterdam,Netherlands,51.9167,4.5
Changping,China,40.2248,116.1944
Benghazi,Libya,32.1167,20.0667
Kryvyi Rih,Ukraine,47.9086,33.3433
Halwan,Egypt,29.8453,31.3333
Colorado Springs,United States,38.8674,-104.7605
Suohe,China,34.7879,113.392
Chimalhuacan,Mexico,19.4167,-98.9
Xinxing,China,39.8734,124.1453
Bhilai,India,21.3667,81.7167
Mangalore,India,12.902,74.8253
Port-Bouet,Côte d'Ivoire,5.2667,-3.9
Zhuangyuan,China,37.3056,120.8275
Glasgow,United Kingdom,55.8611,-4.25
Namangan,Uzbekistan,41.0011,71.6683
Ulyanovsk,Russia,54.3167,48.3667
Tan An,Vietnam,10.905,106.6994
Irkutsk,Russia,52.2833,104.2833
Bhilai,India,21.21,81.38
Nagercoil,India,8.1833,77.4119
Jos,Nigeria,9.9167,8.8903
Pontianak,Indonesia,-0.0206,109.3414
Bazhou,China,39.1235,116.386
Turpan,China,42.9512,89.1895
Villa Nueva,Guatemala,14.5314,-90.5964
Las Pinas City,Philippines,14.45,120.98
Springfield,United States,42.1155,-72.5395
Knoxville,United States,35.9692,-83.9496
Meihekou,China,42.5279,125.678
Jurong,China,31.9579,119.1595
Feira de Santana,Brazil,-12.25,-38.95
Khabarovsk,Russia,48.4833,135.0667
Zhugang,China,28.1277,121.2288
Leipzig,Germany,51.34,12.375
Xinji,China,37.9423,115.2118
Serang,Indonesia,-6.12,106.1503
Jambi,Indonesia,-1.59,103.61
Kandahar,Afghanistan,31.62,65.7158
San Miguel de Tucuman,Argentina,-26.8167,-65.2167
Gothenburg,Sweden,57.7075,11.9675
Yaroslavl,Russia,57.6167,39.85
Baton Rouge,United States,30.442,-91.1311
Zhangshu,China,28.0667,115.5375
Vladivostok,Russia,43.1333,131.9
Ogden,United States,41.2279,-111.9682
Kuantan,Malaysia,3.8167,103.3333
Raurkela,India,22.2492,84.8828
Cuttack,India,20.5236,85.7881
Ar Rayyan,Qatar,25.25,51.4
Haifa,Israel,32.8192,34.9992
Malanje,Angola,-9.5333,16.35
Bacolod,Philippines,10.6765,122.9509
Zhuozhou,China,39.4887,115.9918
Grand Rapids,United States,42.9619,-85.6562
Uberlandia,Brazil,-18.9231,-48.2886
Albany,United States,42.6664,-73.7987
Tianchang,China,32.6853,119.0041
Kawaguchi,Japan,35.8077,139.7241
Itabashi,Japan,35.7512,139.7093
Suginami-ku,Japan,35.6995,139.6364
Cimahi,Indonesia,-6.8712,107.5548
Tuxtla,Mexico,16.7528,-93.1167
Garoua,Cameroon,9.3,13.4
Hafr al Batin,Saudi Arabia,28.4342,45.9636
Tumkur,India,13.34,77.1
Balikpapan,Indonesia,-1.2768,116.8277
Durban,South Africa,-29.8833,31.05
Kagoshima,Japan,31.6,130.55
Al Hillah,Saudi Arabia,23.4895,46.7564
Makhachkala,Russia,42.9833,47.4833
Sihui,China,23.3448,112.6956
Irapuato,Mexico,20.6667,-101.35
Brampton,Canada,43.6833,-79.7667
Luocheng,China,30.9793,104.28
Mbale,Uganda,1.0806,34.175
Pereira,Colombia,4.8143,-75.6946
Bakersfield,United States,35.3529,-119.0359
Uvira,Congo (Kinshasa),-3.4,29.15
Dortmund,Germany,51.5167,7.4667
Chuxiong,China,25.0461,101.5436
Mission Viejo,United States,33.6096,-117.6551
Zahedan,Iran,29.4964,60.8628
New Haven,United States,41.3113,-72.9246
Shah Alam,Malaysia,3.0722,101.5167
Wenlan,China,23.3989,103.3631
Cuiaba,Brazil,-15.5958,-56.0969
Shangzhi,China,45.2116,127.962
Essen,Germany,51.4508,7.0131
Botou,China,38.074,116.57
Mymensingh,Bangladesh,24.7539,90.4031
Anyang,South Korea,37.3833,126.9333
Genoa,Italy,44.4111,8.9328
Durgapur,India,23.55,87.32
Port Sudan,Sudan,19.6167,37.2167
Al Mafraq,Jordan,32.3399,36.2052
Puente Alto,Chile,-33.6167,-70.5667
Dehra Dun,India,30.345,78.029
At Ta'if,Saudi Arabia,21.2751,40.4062
Wancheng,China,18.8,110.4
Hachioji,Japan,35.6664,139.316
Xiulin,China,29.7211,112.4037
Fu'an,China,27.1,119.6333
Tomsk,Russia,56.4886,84.9522
Tonala,Mexico,20.6167,-103.2333
Juiz de Fora,Brazil,-21.7619,-43.3494
Worcester,United States,42.2705,-71.8079
Kolwezi,Congo (Kinshasa),-10.7167,25.4667
Chapra,India,25.7848,84.7274
Bristol,United Kingdom,51.4536,-2.5975
Luofeng,China,37.359,120.396
Lingyuan,China,41.2407,119.3957
Irbid,Jordan,32.55,35.85
Al Mahallah al Kubra,Egypt,30.9686,31.1636
Wencheng,China,19.6167,110.75
Bremen,Germany,53.0833,8.8
Ciudad Bolivar,Venezuela,8.1219,-63.55
Orenburg,Russia,51.7667,55.1
Shenzhou,China,38.0005,115.5541
Asansol,India,23.68,86.99
Kuiju,China,36.8528,119.3904
Zhenzhou,China,32.2739,119.1619
Surakarta,Indonesia,-7.5667,110.8167
Dresden,Germany,51.05,13.74
Kolhapur,India,16.6917,74.2333
Benguela,Angola,-12.55,13.4167
Ensenada,Mexico,31.8578,-116.6058
Kemerovo,Russia,55.3667,86.0667
Lanxi,China,29.2167,119.4722
Dangyang,China,30.8258,111.791
Faridpur,Bangladesh,23.602,89.833
Herat,Afghanistan,34.3419,62.2031
Luanzhou,China,39.7396,118.6978
Hamadan,Iran,34.8064,48.5161
Novokuznetsk,Russia,53.7667,87.1333
Nellore,India,14.45,79.99
Palma,Spain,39.5667,2.65
Chiclayo,Peru,-6.763,-79.8366
Nanded,India,19.15,77.3
Ajmer,India,26.4499,74.6399
Al Hudaydah,Yemen,14.8022,42.9511
Kimhae,South Korea,35.2342,128.8811
Provo,United States,40.2457,-111.6457
Rustenburg,South Africa,-25.6667,27.2428
Amravati,India,20.9258,77.7647
Poznan,Poland,52.4083,16.9336
Huanghua,China,38.371,117.3329
Muntinlupa City,Philippines,14.38,121.05
Londrina,Brazil,-23.31,-51.1628
Nansana,Uganda,0.3639,32.5286
Tabuk,Saudi Arabia,28.3972,36.5789
Heroica Matamoros,Mexico,25.8797,-97.5042
Akron,United States,41.0798,-81.5219
Samarkand,Uzbekistan,39.6547,66.9758
Xingcheng,China,40.6189,120.7205
Kaiyuan,China,42.538,124.0371
Hannover,Germany,52.3667,9.7167
Valledupar,Colombia,10.4833,-73.25
Fengcheng,China,40.4543,124.0646
Ixtapaluca,Mexico,19.3186,-98.8822
Ghulja,China,43.9,81.35
City of Calamba,Philippines,14.2167,121.1667
Ananindeua,Brazil,-1.3658,-48.3719
Xiangyang,China,34.2999,108.4816
Fuding,China,27.2,120.2
An Nasiriyah,Iraq,31.0439,46.2575
Al Hillah,Iraq,32.4833,44.4333
Ibague,Colombia,4.4333,-75.2333
Ryazan,Russia,54.63,39.7425
Kassala,Sudan,15.45,36.4
Tripoli,Lebanon,34.4367,35.8344
Chang'an,China,29.4761,113.448
Koto-ku,Japan,35.6728,139.8173
Naberezhnyye Chelny,Russia,55.7,52.3333
Aksu,China,41.185,80.2904
Salta,Argentina,-24.7833,-65.4167
Astrakhan,Russia,46.35,48.035
Gulbarga,India,17.329,76.825
Cadaado,Somalia,6.1403,46.6256
Lyon,France,45.76,4.84
Wuhai,China,39.6844,106.8158
Mingguang,China,32.7816,117.9899
Antwerp,Belgium,51.2178,4.4003
Yazd,Iran,31.8822,54.3397
Touba,Senegal,14.8667,-15.8833
Ardabil,Iran,38.2425,48.29
Bikaner,India,28.0167,73.3119
Agartala,India,23.8333,91.2833
Ndola,Zambia,-12.9667,28.6333
Himeji,Japan,34.8167,134.6833
Palm Bay,United States,27.9631,-80.6593
Tultitlan de Mariano Escobedo,Mexico,19.645,-99.1694
Ailan Mubage,China,43.908,81.2777
Bandar `Abbas,Iran,27.1833,56.2667
Bac Ninh,Vietnam,21.1833,106.05
Ciudad Apodaca,Mexico,25.7817,-100.1886
Santa Teresa del Tuy,Venezuela,10.2333,-66.65
Maipu,Chile,-33.5167,-70.7667
Penza,Russia,53.2,45
Soacha,Colombia,4.5872,-74.2214
Al Qatif,Saudi Arabia,26.556,49.996
Port Said,Egypt,31.2625,32.3061
Loni,India,28.75,77.28
Yucheng,China,36.9329,116.6403
Sevastopol,Ukraine,44.605,33.5225
Meknes,Morocco,33.895,-5.5547
Mixco,Guatemala,14.6338,-90.6146
Arak,Iran,34.0917,49.6892
Pohang,South Korea,36.0322,129.365
Longzhou,China,30.32,112.23
Anda,China,46.4078,125.3252
Jinghong,China,22.0057,100.7948
Sheffield,United Kingdom,53.3808,-1.4703
Utsunomiya,Japan,36.5551,139.8826
Suez,Egypt,29.9667,32.55
Nuremberg,Germany,49.4539,11.0775
Surrey,Canada,49.19,-122.8489
Heshan,China,22.7697,112.9578
Ujjain,India,23.17,75.79
Jiaji,China,19.2431,110.4642
Santa Marta,Colombia,11.2419,-74.2053
Joinvile,Brazil,-26.3204,-48.8437
Beining,China,41.5961,121.7928
Des Moines,United States,41.5725,-93.6105
Hai Duong,Vietnam,20.9397,106.3306
Carrefour,Haiti,18.5344,-72.4094
Maturin,Venezuela,9.7423,-63.1889
Homyel',Belarus,52.4453,30.9842
Leicester,United Kingdom,52.6344,-1.1319
Yanji,China,42.9044,129.5067
Macapa,Brazil,0.033,-51.0653
Yicheng,China,31.7117,112.2551
Ulhasnagar,India,19.22,73.15
Al `Ashir min Ramadan,Egypt,30.3065,31.7415
Lipetsk,Russia,52.6167,39.6
Al `Amarah,Iraq,31.8333,47.15
Bhilwara,India,25.35,74.63
Encheng,China,22.1879,112.3131
Murrieta,United States,33.5719,-117.1909
Aden,Yemen,12.8,45.0333
Kitwe,Zambia,-12.8167,28.2
Matsuyama,Japan,33.8333,132.7667
Jhansi,India,25.4486,78.5696
Pingtung,Taiwan,22.6761,120.4942
Lapu-Lapu City,Philippines,10.3127,123.9488
Matsudo,Japan,35.7876,139.9032
Monteria,Colombia,8.75,-75.8833
Ichikawa,Japan,35.7219,139.9311
Nagqu,China,31.4766,92.0569
Imus,Philippines,14.4297,120.9367
Hsinchu,Taiwan,24.8167,120.9833
Kimberley,South Africa,-28.7383,24.7639
Jammu,India,32.73,74.87
Belas,Angola,-8.9983,13.265
Talatona,Angola,-8.9167,13.1833
Ile-Ife,Nigeria,7.4667,4.5667
Purnea,India,25.778,87.476
Kirov,Russia,58.6,49.65
Mykolaiv,Ukraine,46.975,31.995
Meicheng,China,30.6412,116.5689
Tinnevelly,India,8.7136,77.7567
Niteroi,Brazil,-22.8833,-43.1036
Farah,Afghanistan,32.3436,62.1194
Sukkur,Pakistan,27.7061,68.8483
Oujda-Angad,Morocco,34.6867,-1.9114
Taozhou,China,30.8956,119.411
Marka,Somalia,1.6833,44.75
Higashi-osaka,Japan,34.6794,135.6008
Johor Bahru,Malaysia,1.4556,103.7611
Hongjiang,China,27.1167,109.95
Bello,Colombia,6.3333,-75.5667
Chimbote,Peru,-9.0745,-78.5936
Duisburg,Germany,51.4347,6.7625
Qaraghandy,Kazakhstan,49.8028,73.1056
Mesa,United States,33.4015,-111.7178
Toulouse,France,43.6045,1.444
Likasi,Congo (Kinshasa),-10.9833,26.7333
Dengtacun,China,41.4237,123.3203
Lembok,Indonesia,-8.565,116.351
Zhijiang,China,30.4271,111.7506
Chengjiao,China,35.4043,114.0593
Beipiao,China,41.802,120.7621
Suoluntun,China,45.2279,124.8432
Staten Island,United States,40.5834,-74.1496
Kota Bharu,Malaysia,6.1333,102.25
Ciudad Lopez Mateos,Mexico,19.55,-99.2833
Celaya,Mexico,20.5222,-100.8122
Vinh,Vietnam,18.6667,105.6667
Duyun,China,26.2672,107.5143
Los Mochis,Mexico,25.7835,-108.9937
`Ajman,United Arab Emirates,25.4136,55.4456
Nyala,Sudan,12.05,24.8833
Larkana,Pakistan,27.5583,68.2111
Wichita,United States,37.6895,-97.3443
Nishinomiya-hama,Japan,34.7376,135.3416
Cheboksary,Russia,56.1333,47.25
Yuanping,China,38.7299,112.7134
Toledo,United States,41.6638,-83.5827
Yueqing,China,28.1188,120.9621
Edinburgh,United Kingdom,55.9533,-3.1892
Belgaum,India,15.85,74.5
Tula,Russia,54.2,37.6167
Gdansk,Poland,54.3475,18.6453
Shahe,China,36.8622,114.502
Serra,Brazil,-20.1289,-40.3078
Brookhaven,United States,40.832,-72.9517
Gaoping,China,35.7911,112.9259
Dunhua,China,43.3667,128.2333
Az Zarqa',Jordan,32.0833,36.1
Sylhet,Bangladesh,24.9,91.8667
Kaihua,China,23.3715,104.2437
Caerdydd,United Kingdom,51.4817,-3.1792
Jamnagar,India,22.47,70.07
Fuyuan,China,48.3614,134.2875
Gaya,India,24.75,85.01
Florianopolis,Brazil,-27.6122,-48.4853
Chiniot,Pakistan,31.7194,72.9842
Jiannan,China,31.3446,104.1994
Oita,Japan,33.2333,131.6067
Berbera,Somalia,10.4356,45.0164
Kaliningrad,Russia,54.7003,20.4531
Mbeya,Tanzania,-8.9,33.45
Nangong,China,37.3606,115.3803
Ambattur,India,13.1143,80.1548
Katlehong,South Africa,-26.3333,28.15
Kurashiki,Japan,34.5833,133.7667
Barura,Bangladesh,23.375,91.0583
San Juan,Argentina,-31.5342,-68.5261
Vila Velha,Brazil,-20.3364,-40.2936
Mazar-e Sharif,Afghanistan,36.7,67.1167
Shekhupura,Pakistan,31.7111,73.9878
Worthing,United Kingdom,50.8147,-0.3714
Piura,Peru,-5.2,-80.6333
Mandaluyong City,Philippines,14.58,121.03
Kartal,Turkey,40.8872,29.19
Jiaojiangcun,China,28.6804,121.45
Harrisburg,United States,40.2752,-76.8843
Laohekou,China,32.3849,111.6695
Kagithane,Turkey,41.0719,28.9664
Agege,Nigeria,6.6219,3.3258
Angeles City,Philippines,15.1472,120.5847
Sao Jose do Rio Preto,Brazil,-20.8081,-49.3811
Pasay City,Philippines,14.55,121
Beian,China,48.2395,126.5037
Fujin,China,47.2489,132.0341
Salt Lake City,India,22.61,88.4
Balashikha,Russia,55.8167,37.9667
Xiaoyi,China,37.1449,111.7718
Port St. Lucie,United States,27.2796,-80.3884
Lanus,Argentina,-34.7,-58.4
Qingzhen,China,26.5555,106.4646
Jiangshan,China,28.7412,118.6225
Ba`qubah,Iraq,33.75,44.6333
Katsushika-ku,Japan,35.7434,139.8472
Buraydah,Saudi Arabia,26.3333,43.9667
Longjiang,China,27.582,120.5488
Tan Uyen,Vietnam,11.0508,106.7636
Long Beach,United States,33.7977,-118.167
Marikina City,Philippines,14.65,121.1
Manado,Indonesia,1.4931,124.8413
Campos,Brazil,-21.7539,-41.3239
Kanazawa,Japan,36.5611,136.6564
Iloilo,Philippines,10.7167,122.5667
Reno,United States,39.5497,-119.8483
Calabar,Nigeria,4.9767,8.3383
Kuqa,China,41.7156,82.9322
Piraeus,Greece,37.943,23.6469
Madison,United States,43.0822,-89.393
Jalgaon,India,21.004,75.568
Cranbourne,Australia,-38.0996,145.2834
Kowloon City,Hong Kong,22.3282,114.1916
Maua,Brazil,-23.6678,-46.4608
Fukuyama,Japan,34.4833,133.3667
Xicheng,China,23.3629,103.1545
Kikwit,Congo (Kinshasa),-5.0386,18.8181
Amagasaki,Japan,34.7333,135.4
Pyeongtaek,South Korea,36.9922,127.1128
Kurnool,India,15.83,78.05
Little Rock,United States,34.7256,-92.3577
Melaka,Malaysia,2.1944,102.2486
General Trias,Philippines,14.3833,120.8833
Jian'ou,China,27.0387,118.3215
Esenler,Turkey,41.0339,28.8903
Huadian,China,42.9633,126.7478
Tanta,Egypt,30.7833,31
Kota Kinabalu,Malaysia,5.975,116.0725
Kursk,Russia,51.7167,36.1833
Minzhu,China,43.7192,127.337
Stavropol,Russia,45.05,41.9833
Udaipur,India,24.58,73.68
Mogi das Cruzes,Brazil,-23.5228,-46.1878
Mariupol,Ukraine,47.0958,37.5494
Eslamshahr,Iran,35.5606,51.2347
San Nicolas de los Garza,Mexico,25.75,-100.2833
Greenville,United States,34.8354,-82.3646
Sham Shui Po,Hong Kong,22.3307,114.1622
Barcelona,Venezuela,10.1333,-64.6833
Constantine,Algeria,36.365,6.6147
Tanbei,China,35.0907,112.9317
Ado-Ekiti,Nigeria,7.6167,5.2167
Batman,Turkey,37.887,41.132
Bandung,Indonesia,-6.912,107.6097
Baisha,China,29.4774,119.2853
Avcilar,Turkey,40.9792,28.7214
Denton,United States,33.2175,-97.1418
Rodriguez,Philippines,14.7167,121.1167
Taoyuan District,Taiwan,24.9913,121.3143
Yongji,China,34.867,110.4417
Chauddagram,Bangladesh,23.2283,91.3133
Danjiangkou,China,32.5408,111.5098
Kahramanmaras,Turkey,37.5833,36.9333
Fujisawa,Japan,35.35,139.4667
Andijon,Uzbekistan,40.7833,72.3333
Mathura,India,27.4925,77.6736
Zurich,Switzerland,47.3744,8.5411
Diadema,Brazil,-23.6861,-46.6106
Machida,Japan,35.7106,139.4386
Ulan-Ude,Russia,51.8272,107.6064
Spokane,United States,47.6671,-117.433
Ning'an,China,44.3439,129.4656
Zhangjiakou Shi Xuanhua Qu,China,40.5944,115.0243
Sunch'on,North Korea,39.4167,125.9333
Jinchang,China,38.5168,102.1866
Kashiwa,Japan,35.8676,139.9758
Guangming,China,45.3357,122.7765
Sangli,India,16.8667,74.5667
Oakland,United States,37.7904,-122.2166
Beira,Mozambique,-19.8333,34.85
Kupang,Indonesia,-10.1702,123.6077
Jeju,South Korea,33.5097,126.5219
Davangere,India,14.4666,75.9242
Caxias do Sul,Brazil,-29.1667,-51.1833
Manizales,Colombia,5.1,-75.55
Yogyakarta,Indonesia,-7.8014,110.3644
Calicut,India,11.25,75.77
Koumassi,Côte d'Ivoire,5.3,-3.95
Veracruz,Mexico,19.1903,-96.1533
Zanjan,Iran,36.6789,48.5056
Welkom,South Africa,-27.9831,26.7208
Shinagawa-ku,Japan,35.6092,139.7302
Kenitra,Morocco,34.25,-6.5833
Agadir,Morocco,30.4333,-9.6
Somolu,Nigeria,6.5408,3.3872
Uyo,Nigeria,5.05,7.9333
Sokoto,Nigeria,13.0622,5.2339
Lancaster,United States,40.042,-76.3012
Masan,South Korea,35.1833,128.55
Huili Chengguanzhen,China,26.6614,102.2469
Sidi Bouzid,Tunisia,35.0381,9.4858
Cusco,Peru,-13.525,-71.9722
Porto Velho,Brazil,-8.7619,-63.9039
Sihung,South Korea,37.3799,126.8029
Xalapa,Mexico,19.54,-96.9275
Florencio Varela,Argentina,-34.8167,-58.2833
Tver,Russia,56.8578,35.9219
Trabzon,Turkey,41.005,39.7225
Malatya,Turkey,38.3486,38.3194
Xunyang,China,32.8357,109.359
Uijeongbu,South Korea,37.7486,127.0389
Akola,India,20.7,77
Aomori,Japan,40.8223,140.7307
Yan'an Beilu,China,44.0144,87.2674
Owo,Nigeria,7.1961,5.5864
Aves,Portugal,41.44,-8.3
Buenaventura,Colombia,3.8772,-77.0267
Poughkeepsie,United States,41.695,-73.9211
Laval,Canada,45.5833,-73.75
Boise,United States,43.6005,-116.2308
Toyota,Japan,35.0824,137.1563
Santa Rosa,Philippines,14.3167,121.1167
Daloa,Côte d'Ivoire,6.8833,-6.45
Elazig,Turkey,38.6744,39.2228
Hpa-An,Myanmar,16.8906,97.6333
Rahimyar Khan,Pakistan,28.42,70.3
Bettiah,India,26.8014,84.5028
Ugep,Nigeria,5.8,8.0833
Winston-Salem,United States,36.1029,-80.261
Kushtia,Bangladesh,23.9101,89.1231
Mishan,China,45.542,131.8666
Hailin,China,44.5735,129.3825
Seremban,Malaysia,2.7222,101.9417
Boa Vista,Brazil,2.8194,-60.6714
Lecheng,China,25.1307,113.3472
Zhengjiatun,China,43.513,123.5003
Luhansk,Ukraine,48.5667,39.3333
Pencheng,China,29.6792,115.6611
Magnitogorsk,Russia,53.3833,59.0333
Thu Dau Mot,Vietnam,10.9667,106.65
Takamatsu,Japan,34.35,134.05
Syracuse,United States,43.0407,-76.1437
El Obeid,Sudan,13.1833,30.2167
Da'an,China,45.505,124.2863
Xingren,China,25.4352,105.1907
Binan,Philippines,14.3333,121.0833
Arusha,Tanzania,-3.3667,36.6833
Fenyang,China,37.2647,111.7775
Ajdabiya,Libya,30.7556,20.2253
Paju,South Korea,37.8667,126.8
Mataram,Indonesia,-8.5833,116.1167
Carapicuiba,Brazil,-23.5192,-46.8358
Jhang City,Pakistan,31.2694,72.3161
Tepic,Mexico,21.5083,-104.8931
Jayapura,Indonesia,-2.533,140.717
Rio Branco,Brazil,-9.9747,-67.81
Toyama,Japan,36.6959,137.2137
Fangting,China,31.1282,104.1695
Sanandaj,Iran,35.3144,46.9922
Delhi Cantonment,India,28.6,77.1333
Linghai,China,41.1676,121.3558
Shorapur,India,16.52,76.76
Toyonaka,Japan,34.7833,135.4667
Sochi,Russia,43.5853,39.7203
Bhagalpur,India,25.25,87
Bellary,India,15.1,76.9167
Ivanovo,Russia,57,41
Kisumu,Kenya,-0.0833,34.7667
Augusta,United States,33.3645,-82.0708
Turkmenabat,Turkmenistan,39.0833,63.5667
Zaria,Nigeria,11.0667,7.7
Bryansk,Russia,53.25,34.3667
Kumi,South Korea,36.1195,128.3444
Asyut,Egypt,27.1833,31.1667
Wanyuan,China,32.0691,108.0351
Maracay,Venezuela,10.2469,-67.5958
Padiala,India,30.5667,76.6333
Yuregir,Turkey,36.9981,35.3439
Jiexiu,China,37.0282,111.9103
Stockton,United States,37.9765,-121.3109
Bogra,Bangladesh,24.85,89.3667
Santa Fe,Argentina,-31.6333,-60.7
Campina Grande,Brazil,-7.2306,-35.8811
Nagasaki,Japan,32.7447,129.8736
Szczecin,Poland,53.4325,14.5481
Maringa,Brazil,-23.4,-51.9167
Palm Coast,United States,29.5389,-81.2457
Chattanooga,United States,35.066,-85.2481
Qazvin,Iran,36.2667,50
Quilon,India,8.88,76.6
Jundiai,Brazil,-23.1858,-46.8839
Hirakata,Japan,34.8167,135.65
Gifu,Japan,35.4232,136.7608
Khayelitsha,South Africa,-34.0403,18.6778
Kukatpalli,India,17.4849,78.4138
Jiangjiafan,China,31.0238,111.9709
Maungdaw,Myanmar,20.8167,92.3667
Kissimmee,United States,28.3041,-81.4169
Durham,United States,35.9792,-78.9022
Dera Ghazi Khan,Pakistan,30.0331,70.64
Miyazaki,Japan,31.9167,131.4167
Bhatpara,India,22.87,88.41
Hazaribagh,India,23.98,85.35
Sandakan,Malaysia,5.8388,118.1173
Taytay,Philippines,14.5692,121.1325
Hejin,China,35.5914,110.706
Olinda,Brazil,-8,-34.8833
Thanh Hoa,Vietnam,19.8075,105.7764
Surgut,Russia,61.25,73.4333
Nnewi,Nigeria,6.0167,6.9167
Minamisuita,Japan,34.7594,135.5169
Thies,Senegal,14.7833,-16.9167
Betsiboka,Madagascar,-16.95,46.83
Belgorod,Russia,50.6,36.6
Tangail,Bangladesh,24.2644,89.9181
Yokosuka,Japan,35.25,139.6667
Nha Trang,Vietnam,12.245,109.1917
Malabon,Philippines,14.66,120.96
Al Jahra',Kuwait,29.35,47.6833
Yola,Nigeria,9.23,12.46
Pasto,Colombia,1.2078,-77.2772
Lobito,Angola,-12.3597,13.5308
Al Jubayl,Saudi Arabia,27,49.6544
Saurimo,Angola,-9.65,20.4
Bologna,Italy,44.4939,11.3428
Arlington,United States,32.6998,-97.125
Gujrat,Pakistan,32.5739,74.0789
Ad Diwaniyah,Iraq,31.9892,44.9247
Piracicaba,Brazil,-22.7253,-47.6492
Hancheng,China,35.4768,110.4419
Karamay,China,45.5799,84.8892
Kakinada,India,16.9661,82.255
San-Pedro,Côte d'Ivoire,4.75,-6.6333
Tieli,China,46.9838,128.04
Cilegon,Indonesia,-6.0027,106.0112
Darbhanga,India,26.17,85.9
Victorville,United States,34.5277,-117.3536
Gwoza,Nigeria,11.0861,13.6914
Saki,Nigeria,8.6667,3.4
Tetouan,Morocco,35.5667,-5.3667
Aqtobe,Kazakhstan,50.2836,57.2297
Biba,Egypt,28.9218,30.9844
Plovdiv,Bulgaria,42.15,24.75
Oyo,Nigeria,7.85,3.933
Ilesa,Nigeria,7.6167,4.7167
Tarlac City,Philippines,15.4869,120.59
Okazaki,Japan,34.9543,137.1744
Sirur,India,18.83,74.38
Cainta,Philippines,14.5667,121.1167
Ha'il,Saudi Arabia,27.5167,41.6833
Garoowe,Somalia,8.4,48.4667
Olomouc,Czechia,49.5939,17.2508
Yidu,China,30.388,111.4505
Lianzhou,China,24.7868,112.3735
Ceel Baraf,Somalia,3.2073,45.7587
Florence,Italy,43.7714,11.2542
Christchurch,New Zealand,-43.531,172.6365
Nuevo Laredo,Mexico,27.4861,-99.5069
Brno,Czechia,49.1925,16.6083
Bawshar,Oman,23.5333,58.3833
London,Canada,42.9836,-81.2497
Novi Sad,Serbia,45.2542,19.8425
Aurora,United States,39.7083,-104.7237
Gusau,Nigeria,12.15,6.6667
Modesto,United States,37.6375,-121.0028
Kaunas,Lithuania,54.8972,23.8861
Sardarshahr,India,28.4401,74.4908
Zetang,China,29.238,91.771
Las Palmas,Spain,28.1272,-15.4314
Ichinomiya,Japan,35.3039,136.8031
Taunggyi,Myanmar,20.7836,97.0354
Lancaster,United States,34.6935,-118.1753
Fayetteville,United States,36.0714,-94.1661
Cantonment,Pakistan,31.5167,74.3833
Panihati,India,22.69,88.37
Huancayo,Peru,-12.0667,-75.2167
Betim,Brazil,-19.9678,-44.1978
Usulutan,El Salvador,13.35,-88.45
Sintra,Portugal,38.7992,-9.3883
Chitungwiza,Zimbabwe,-17.9939,31.0481
Hatay,Turkey,36.2025,36.1606
Iquitos,Peru,-3.75,-73.25
Sivas,Turkey,39.75,37.0167
Helixi,China,30.6267,118.9861
Scranton,United States,41.4044,-75.6649
Mamou,Guinea,10.3833,-12.0833
Al Kharj,Saudi Arabia,24.1483,47.305
Manukau City,New Zealand,-37,174.885
Stoke-on-Trent,United Kingdom,53,-2.1833
Cumana,Venezuela,10.45,-64.1667
Rohtak,India,28.8909,76.5796
Vinnytsia,Ukraine,49.2333,28.4833
Maler Kotla,India,30.5167,75.8833
Lipa City,Philippines,13.9411,121.1622
Mandaue City,Philippines,10.3333,123.9333
Bhawana,Pakistan,31.5661,72.6461
Khorramabad,Iran,33.4878,48.3558
Ambon,Indonesia,-3.7,128.1667
Takasaki,Japan,36.3219,139.0033
Butuan,Philippines,8.9534,125.5288
Toyohashi,Japan,34.7692,137.3915
Keelung,Taiwan,25.1333,121.7333
Baguio City,Philippines,16.4119,120.5933
La Florida,Chile,-33.5333,-70.5833
Gebze,Turkey,40.8,29.4333
Lengshuijiang,China,27.6858,111.4279
Petare,Venezuela,10.4833,-66.8167
Anguo,China,38.4177,115.3204
Kita-ku,Japan,35.7528,139.7336
Madan,Iran,30.3392,48.3042
Panshi,China,42.9392,126.0561
Bharatpur,Nepal,27.6833,84.4333
Az Zubayr,Iraq,30.3833,47.7
Caucaia,Brazil,-3.7167,-38.65
Vitsyebsk,Belarus,55.1917,30.2056
Shinjuku,Japan,35.6939,139.7034
Nicolas Romero,Mexico,19.5833,-99.3667
Huichang,China,34.9136,112.7852
Nagano,Japan,36.6486,138.1947
Bauru,Brazil,-22.315,-49.0608
Yanjiao,China,39.9432,116.8036
Bochum,Germany,51.4819,7.2158
Tecamac,Mexico,19.7131,-98.9683
Anapolis,Brazil,-16.3339,-48.9519
Coventry,United Kingdom,52.4081,-1.5106
Oxnard,United States,34.1964,-119.1815
Korba,India,22.35,82.68
Cibinong,Indonesia,-6.485,106.842
Dasarhalli,India,13.0465,77.513
Qardho,Somalia,9.5,49.0833
Wonsan,North Korea,39.1475,127.4461
Kocaeli,Turkey,40.7625,29.9175
Newcastle,South Africa,-27.7464,29.9328
Iligan,Philippines,8.23,124.25
Youngstown,United States,41.0993,-80.6463
Cabuyao,Philippines,14.275,121.125
Kayapinar,Turkey,37.94,40.19
Nakano,Japan,35.7073,139.6637
Utrecht,Netherlands,52.0833,5.1167
Bengkulu,Indonesia,-3.7956,102.2592
Orizaba,Mexico,18.85,-97.1
Blumenau,Brazil,-26.9333,-49.05
Montes Claros,Brazil,-16.7306,-43.8639
Indio,United States,33.7346,-116.2346
Petion-Ville,Haiti,18.5128,-72.2864
Tungi,Bangladesh,23.9,90.41
Buurhakaba,Somalia,2.7833,44.0833
Shuanghe,China,30.3866,106.7756
Konak,Turkey,38.4189,27.1285
Ash Shuhada',Egypt,30.6039,30.9021
Pensacola,United States,30.4413,-87.1911
Umuahia,Nigeria,5.5333,7.4833
Gedaref,Sudan,14.0333,35.3833
Palu,Indonesia,-0.895,119.8594
Mardan,Pakistan,34.2012,72.0258
Pokhara,Nepal,28.2083,83.9889
Mahilyow,Belarus,53.9167,30.35
Wudalianchi,China,48.6433,126.1408
Hrodna,Belarus,53.6667,23.8333
Sungai Petani,Malaysia,5.65,100.48
Linxia Chengguanzhen,China,35.6,103.2167
Sikar,India,27.62,75.15
Nam Dinh,Vietnam,20.42,106.1683
Vitoria,Brazil,-20.2889,-40.3083
Sasaram,India,24.95,84.03
Karur,India,10.9601,78.0766
Franca,Brazil,-20.5389,-47.4008
Vladimir,Russia,56.1286,40.4058
Karnal,India,29.686,76.989
Kismaayo,Somalia,-0.3581,42.5453
Sao Vicente,Brazil,-23.9633,-46.3922
Kawagoe,Japan,35.9251,139.4858
Villahermosa,Mexico,17.9892,-92.9281
Taraz,Kazakhstan,42.9,71.3667
Cubal,Angola,-13.1117,14.3672
Luena,Angola,-11.7918,19.9062
Ibb,Yemen,13.9667,44.1667
Yong'an,China,25.9733,117.3593
Wuppertal,Germany,51.2667,7.1833
Manisa,Turkey,38.6306,27.4222
San Fernando,Philippines,15.0333,120.6833
Chanda,India,19.95,79.297
Minatitlan,Mexico,17.9833,-94.55
Malmo,Sweden,55.6058,13.0358
Nizhniy Tagil,Russia,57.9167,59.9667
San Pedro,Philippines,14.3583,121.0583
Cuito,Angola,-12.3833,16.9333
Hongzhai,China,34.9857,104.5446
Guediawaye,Senegal,14.7833,-17.4
Wakayama,Japan,34.2333,135.1667
Tin Shui Wai,Hong Kong,22.4608,114.0012
Pavlodar,Kazakhstan,52.3,76.95
Gimpo,South Korea,37.7,126.6
Itaquaquecetuba,Brazil,-23.4864,-46.3486
Nara,Japan,34.6844,135.805
Van,Turkey,38.4942,43.38
Corrientes,Argentina,-27.4833,-58.8167
Neiva,Colombia,2.9345,-75.2809
Arkhangelsk,Russia,64.55,40.5333
Batangas,Philippines,13.83,121
Licheng,China,24.4935,110.3902
Koshigaya,Japan,35.8911,139.7909
Sinuiju,North Korea,40.1,124.4
Cabimas,Venezuela,10.4,-71.4333
Yakeshi,China,49.2842,120.7283
Oruro,Bolivia,-17.9667,-67.1167
Ahmadnagar,India,19.08,74.73
Avadi,India,13.1097,80.0972
Sarai Alamgir,Pakistan,32.9,73.75
Varna,Bulgaria,43.2167,27.9167
Gorgan,Iran,36.8386,54.4347
Takatsuki,Japan,34.85,135.6167
Holguin,Cuba,20.8869,-76.2592
Qo`qon,Uzbekistan,40.5286,70.9425
Semey,Kazakhstan,50.4333,80.2667
Yingmen,China,39.9487,97.4395
Cariacica,Brazil,-20.2639,-40.42
Palmira,Colombia,3.5833,-76.25
Tapachula,Mexico,14.9,-92.2667
Bydgoszcz,Poland,53.1219,18.0003
Antofagasta,Chile,-23.65,-70.4
Anaheim,United States,33.839,-117.8574
Rajahmundry,India,16.98,81.78
Chita,Russia,52.0333,113.5
Bonita Springs,United States,26.3558,-81.7859
Caruaru,Brazil,-8.2828,-35.9758
Nice,France,43.7034,7.2663
Shahjanpur,India,27.88,79.91
Antonio Enes,Mozambique,-16.2333,39.9167
Central Coast,Australia,-33.3,151.2
Pamukkale,Turkey,37.9167,29.1167
Wad Medani,Sudan,14.4,33.5167
Oskemen,Kazakhstan,49.9833,82.6167
Tanch'on,North Korea,40.458,128.911
Tokorozawa,Japan,35.7996,139.4686
Hosur,India,12.7409,77.8253
Serekunda,The Gambia,13.4333,-16.6667
Greensboro,United States,36.0956,-79.8271
Kusti,Sudan,13.1667,32.6667
Cuddapah,India,14.47,78.82
Simferopol,Ukraine,44.9484,34.1
Sariyer,Turkey,41.1669,29.0572
Sumqayit,Azerbaijan,40.5917,49.6397
Otsu,Japan,35.0167,135.85
Vitoria da Conquista,Brazil,-14.8658,-40.8389
Makiivka,Ukraine,48.0556,37.9611
Vung Tau,Vietnam,10.3833,107.1167
Brest,Belarus,52.1347,23.6569
Uruapan,Mexico,19.4208,-102.0628
Gomez Palacio,Mexico,25.5611,-103.4983
Yeosu,South Korea,34.7333,127.7333
Kaluga,Russia,54.5333,36.2667
Meram,Turkey,37.8364,32.4383
Muzaffarpur,India,26.1225,85.3906
Alwar,India,27.5498,76.6355
Lublin,Poland,51.25,22.5667
Lianran,China,24.9211,102.4778
Buon Ma Thuot,Vietnam,12.6667,108.05
Cuernavaca,Mexico,18.9186,-99.2342
Alicante,Spain,38.3453,-0.4831
East London,South Africa,-33.0175,27.9047
Tarsus,Turkey,36.9165,34.8951
Matadi,Congo (Kinshasa),-5.8167,13.4833
Islip,United States,40.7385,-73.1888
Cimanggis,Indonesia,-6.3645,106.8591
Kaesong,North Korea,37.9667,126.55
Beni,Congo (Kinshasa),0.5,29.4667
Sultanbeyli,Turkey,40.9683,29.2617
Huntsville,United States,34.6981,-86.6412
Randburg,South Africa,-26.0936,28.0064
Jitpur,Nepal,27.6666,85.3333
Beylikduzu,Turkey,41.0011,28.6419
Petrolina,Brazil,-9.3928,-40.5078
Chinju,South Korea,35.2,128.0833
Tangdong,China,25.9755,113.2302
Reading,United Kingdom,51.4542,-0.9731
Sambalpur,India,21.47,83.97
Hangu,China,39.232,117.777
Belfast,United Kingdom,54.5964,-5.93
Shah Latif Town,Pakistan,24.8806,67.1625
Iwaki,Japan,37.0505,140.8877
Salamanca,Mexico,20.5703,-101.1972
Yingzhong,China,32.2381,119.8133
Vina del Mar,Chile,-33.0244,-71.5517
Hirosaki,Japan,40.6031,140.4638
Bielefeld,Germany,52.0211,8.5347
Az Zaqaziq,Egypt,30.5667,31.5
Nazret,Ethiopia,8.5414,39.2689
Cuenca,Ecuador,-2.8974,-79.0045
Tampere,Finland,61.4981,23.76
Bonn,Germany,50.7333,7.1
Al Fayyum,Egypt,29.3084,30.8441
Blida,Algeria,36.4722,2.8333
Ciudad Obregon,Mexico,27.4939,-109.9389
Uberaba,Brazil,-19.7478,-47.9319
Corpus Christi,United States,27.7254,-97.3767
Asan,South Korea,36.7833,126.9833
Ribeirao das Neves,Brazil,-19.7669,-44.0869
Soledad de Graciano Sanchez,Mexico,22.1833,-100.9333
Maebashi,Japan,36.3895,139.0634
Kamarhati,India,22.6686,88.3704
Ganca,Azerbaijan,40.6828,46.3606
Kendari,Indonesia,-3.9907,122.5086
Balikesir,Turkey,39.6333,27.8833
Thai Nguyen,Vietnam,21.6,105.85
Asahikawa,Japan,43.7706,142.365
Smolensk,Russia,54.7828,32.0453
Dahuk,Iraq,36.8667,43
Wonju,South Korea,37.3417,127.9208
Nakuru,Kenya,-0.3,36.0667
Lafia,Nigeria,8.5,8.5167
Fort Wayne,United States,41.0888,-85.1436
Gungoren,Turkey,41.0225,28.8717
Koriyama,Japan,37.4004,140.3597
Bamiantong,China,44.9164,130.5212
Taourirt,Morocco,34.4169,-2.885
Rampur,India,28.8,79
Debrecen,Hungary,47.53,21.6392
Cabanatuan City,Philippines,15.4908,120.9678
Markham,Canada,43.8767,-79.2633
Fayetteville,United States,35.085,-78.9772
Pelotas,Brazil,-31.7719,-52.3425
Roodepoort,South Africa,-26.1625,27.8725
Volzhskiy,Russia,48.8056,44.7417
Ann Arbor,United States,42.2759,-83.731
Bijapur,India,16.83,75.71
Sukabumi,Indonesia,-6.9181,106.9315
Tharad,India,24.3926,71.6248
Ratnagiri,India,16.9944,73.3
Ulanhot,China,46.0726,122.0719
Yunzhong,China,39.8143,113.0946
Jackson,United States,32.3157,-90.2125
Cotabato,Philippines,7.22,124.25
Al Fallujah,Iraq,33.35,43.7833
Kochi,Japan,33.5589,133.5314
Minna,Nigeria,9.6139,6.5569
Bielsko-Biala,Poland,49.8225,19.0444
Canoas,Brazil,-29.92,-51.18
Gwangmyeongni,South Korea,37.476,126.866
Cluj-Napoca,Romania,46.7667,23.5833
Bari,Italy,41.1253,16.8667
Pucallpa,Peru,-8.3833,-74.55
Kuching,Malaysia,1.5575,110.3439
Gonder,Ethiopia,12.6075,37.4592
Kikuyu,Kenya,-1.25,36.6667
Mekele,Ethiopia,13.4969,39.4769
Gonaives,Haiti,19.4456,-72.6883
Guasave,Mexico,25.5744,-108.4706
Naha,Japan,26.2122,127.6792
Nantes,France,47.2181,-1.5528
Binxian,China,35.0364,108.0764
Shimoga,India,13.9333,75.5667
Hotan,China,37.1,80.0167
Kaiyuan,China,23.7147,103.2585
Ciudad del Este,Paraguay,-25.5167,-54.6167
Temara,Morocco,33.9267,-6.9122
Antioch,United States,37.9787,-121.796
Uige,Angola,-7.6167,15.05
Osh,Kyrgyzstan,40.5333,72.7833
Cordoba,Spain,37.8845,-4.7796
Camaguey,Cuba,21.3839,-77.9075
Mobile,United States,30.6782,-88.1162
San Salvador de Jujuy,Argentina,-24.1833,-65.3
Al Kut,Iraq,32.4907,45.8304
Cherepovets,Russia,59.1167,37.9
Lexington,United States,38.0423,-84.4587
San Miguelito,Panama,9.033,-79.5
Okene,Nigeria,7.55,6.2333
Timisoara,Romania,45.7597,21.23
Menongue,Angola,-14.6556,17.6842
Junagadh,India,21.52,70.463
Katsina,Nigeria,12.9889,7.6008
Poltava,Ukraine,49.5894,34.5514
Maroua,Cameroon,10.5971,14.3157
Xiaoli,China,22.6782,113.2313
Kaech'on,North Korea,39.6986,125.9061
Asan,South Korea,36.35,126.9167
Tehuacan,Mexico,18.4617,-97.3928
Aksaray,Turkey,38.3742,34.0289
Attiecoube,Côte d'Ivoire,5.3333,-4.0333
Coatzacoalcos,Mexico,18.15,-94.4333
Saransk,Russia,54.1833,45.1833
Nukus,Uzbekistan,42.4667,59.6
Puerto Plata,Dominican Republic,19.8,-70.6833
Hapur,India,28.7309,77.7757
Zalantun,China,48.0033,122.7365
Munster,Germany,51.9625,7.6256
Trichur,India,10.52,76.21
An Nhon,Vietnam,13.917,109.083
Taubate,Brazil,-23.025,-45.5556
Binangonan,Philippines,14.4514,121.1919
Cirebon,Indonesia,-6.7071,108.5574
Safi,Morocco,32.2833,-9.2333
Mitchells Plain,South Africa,-34.0506,18.6181
Boaco,Nicaragua,12.4719,-85.6594
Asheville,United States,35.5707,-82.5537
Ca Mau,Vietnam,9.1833,105.15
Trenton,United States,40.2237,-74.7641
Toshima,Japan,35.7261,139.7167
Vologda,Russia,59.2167,39.9
Barddhaman,India,23.2333,87.8667
Tanza,Philippines,14.3944,120.8531
Bor,South Sudan,6.2125,31.5608
Kasur,Pakistan,31.1167,74.45
Yakou,China,33.2937,113.5203
Santa Rosa,United States,38.4458,-122.7067
Orel,Russia,52.9686,36.0694
Shahr-e Qods,Iran,35.7214,51.1089
Kingston upon Hull,United Kingdom,53.7444,-0.3325
Mannheim,Germany,49.4878,8.4661
Santa Ana,United States,33.7367,-117.8819
Guaruja,Brazil,-23.9936,-46.2564
Playa del Carmen,Mexico,20.6281,-87.0755
Pasir Gudang,Malaysia,1.5028,103.9356
Datang,China,22.9481,113.9276
Panvel,India,18.9944,73.1139
Lansing,United States,42.7142,-84.5601
Zarzal,Colombia,4.3983,-76.0772
La Victoria,Dominican Republic,18.55,-69.9
Port Elizabeth,South Africa,-33.9581,25.6
Alanya,Turkey,36.55,32
Nizamabad,India,18.672,78.094
Al `Ajami,Egypt,31.0959,29.7604
Quy Nhon,Vietnam,13.7667,109.2333
Yakutsk,Russia,62.0272,129.7319
Yokkaichi,Japan,34.965,136.6244
Ponta Grossa,Brazil,-25.0994,-50.1583
Catania,Italy,37.5,15.0903
Chalco,Mexico,19.2647,-98.8975
Henderson,United States,36.0133,-115.0381
Gwangju,South Korea,37.3667,127.2833
Longquan,China,25.9106,114.786
Karlsruhe,Germany,49.0092,8.404
Shahriar,Iran,35.6597,51.0592
Kurgan,Russia,55.4408,65.3411
Kasugai,Japan,35.2475,136.9722
St. Paul,United States,44.9478,-93.1039
Sariwon,North Korea,38.5064,125.7597
St. Catharines,Canada,43.1833,-79.2333
Karawang,Indonesia,-6.3125,107.295
Lakeland,United States,28.0557,-81.9545
Niagara Falls,Canada,43.06,-79.1067
Oulgaret,India,11.957,79.7737
Taboao da Serra,Brazil,-23.5328,-46.7994
Vladikavkaz,Russia,43.04,44.6775
Nghi Son,Vietnam,19.417,105.75
Juliaca,Peru,-15.4833,-70.1333
Parbhani,India,19.27,76.78
Hisar,India,29.15,75.7
Puerto La Cruz,Venezuela,10.2,-64.6333
Puerto Princesa,Philippines,9.75,118.75
Podolsk,Russia,55.4311,37.5456
Meguro,Japan,35.6415,139.6983
Ciudad Victoria,Mexico,23.7389,-99.1431
Ciudad Santa Catarina,Mexico,25.6833,-100.45
Santarem,Brazil,-2.43,-54.72
Newark,United States,40.7245,-74.1725
Vaughan,Canada,43.8333,-79.5
Awasa,Ethiopia,7.05,38.4667
Oakashicho,Japan,34.65,135
Yesilyurt,Turkey,38.2961,38.2489
Pekalongan,Indonesia,-6.8833,109.6667
Pondokaren,Indonesia,-6.2811,106.7019
Adiyaman,Turkey,37.7639,38.2778
Kurume,Japan,33.3167,130.5167
Vila Nova de Gaia,Portugal,41.1333,-8.6167
Paulista,Brazil,-7.9408,-34.8728
Oaxaca,Mexico,17.0606,-96.7253
Armenia,Colombia,4.53,-75.68
Akita,Japan,39.72,140.1026
Awka,Nigeria,6.2,7.0667
San Bernardo,Chile,-33.5833,-70.7
Curepipe,Mauritius,-20.3188,57.5263
Iksan,South Korea,35.9439,126.9544
Pachuca,Mexico,20.1,-98.75
Al Matariyah,Egypt,31.1833,32.0333
Soc Trang,Vietnam,9.6028,105.9736
Bahia Blanca,Argentina,-38.7167,-62.2667
Coacalco,Mexico,19.6333,-99.0931
San Juan del Rio,Mexico,20.3833,-99.9833
Fort Collins,United States,40.5477,-105.0656
Limeira,Brazil,-22.565,-47.4019
Popayan,Colombia,2.4542,-76.6092
Praia Grande,Brazil,-24.0061,-46.4028
Qianzhou,China,28.3185,109.7318
Newcastle,United Kingdom,54.98,-1.61
Maldah,India,25.0119,88.1433
Ciudad General Escobedo,Mexico,25.7933,-100.1583
Oyster Bay,United States,40.7846,-73.514
Montpellier,France,43.6119,3.8772
Phan Thiet,Vietnam,10.9333,108.1
Stockport,United Kingdom,53.4083,-2.1494
Al Qunfudhah,Saudi Arabia,19.1264,41.0789
Bada Barabil,India,22.12,85.4
Tampico,Mexico,22.2553,-97.8686
Bialystok,Poland,53.1353,23.1456
Coatepeque,Guatemala,14.7,-91.8667
Ash Shamiyah,Iraq,31.9636,44.5989
Merida,Venezuela,8.48,-71.19
Chakwal,Pakistan,32.9303,72.8556
Murmansk,Russia,68.9706,33.075
Ar Raqqah,Syria,35.95,39.01
Afyonkarahisar,Turkey,38.7578,30.5386
Bihar,India,25.197,85.518
Jember,Indonesia,-8.1727,113.6873
Valladolid,Spain,41.6528,-4.7236
Reading,United States,40.34,-75.9267
Springfield,United States,37.1943,-93.2916
Iskenderun,Turkey,36.5817,36.165
Al Mubarraz,Saudi Arabia,25.4416,49.6642
Petropolis,Brazil,-22.505,-43.1789
Augsburg,Germany,48.3689,10.8978
Navotas,Philippines,14.6667,120.9417
Chernihiv,Ukraine,51.4939,31.2947
Yangsan,South Korea,35.3333,129.0333
Comilla,Bangladesh,23.45,91.2
Irvine,United States,33.6772,-117.7738
Bradford,United Kingdom,53.8,-1.75
Tagum,Philippines,7.4478,125.8078
Espoo,Finland,60.2056,24.6556
Valparaiso,Chile,-33.0461,-71.6197
Silang,Philippines,14.2306,120.975
Finglas,Ireland,53.4597,-6.2181
Rangpur,Bangladesh,25.75,89.2444
Vigo,Spain,42.2314,-8.7124
Sikandarabad,India,28.4512,77.6955
Battalgazi,Turkey,38.4228,38.3656
Bali,India,22.65,88.34
Corum,Turkey,40.5455,34.957
Ismailia,Egypt,30.5833,32.2667
Vila Teixeira da Silva,Angola,-12.0072,15.7792
Panipat,India,29.3875,76.97
Delmas,Haiti,18.55,-72.3
Strasbourg,France,48.5833,7.7458
Mabalacat,Philippines,15.2167,120.5833
Batna,Algeria,35.55,6.1667
Aizawl,India,23.7272,92.7178
Tambov,Russia,52.7167,41.4333
Dexing,China,28.958,117.7597
Iasi,Romania,47.1622,27.5889
Kunp'o,South Korea,37.35,126.95
San Lorenzo,Paraguay,-25.34,-57.52
Santa Maria,Philippines,14.8183,120.9563
Sonpur,India,25.7,85.18
Groznyy,Russia,43.3125,45.6986
Kherson,Ukraine,46.6425,32.625
Anchorage,United States,61.1508,-149.1091
The Woodlands,United States,30.1738,-95.5134
Hong'an,China,47.21,123.61
Resistencia,Argentina,-27.4514,-58.9867
Graz,Austria,47.0708,15.4386
Karimnagar,India,18.4386,79.1288
Brasov,Romania,45.6667,25.6167
Sumida,Japan,35.7107,139.8015
Sekondi,Ghana,4.9433,-1.704
South Bend,United States,41.6767,-86.2696
Morioka,Japan,39.7021,141.1545
Sonipat,India,28.99,77.022
Setif,Algeria,36.19,5.41
Atyrau,Kazakhstan,47.1167,51.8833
Ipswich,United Kingdom,52.0594,1.1556
Dewas,India,22.96,76.06
Hulin,China,45.7671,132.9646
Rockford,United States,42.2596,-89.064
Savannah,United States,32.0286,-81.1821
Itagui,Colombia,6.1667,-75.6167
Croix-des-Bouquets,Haiti,18.5761,-72.2269
Farg`ona,Uzbekistan,40.3864,71.7864
Magway,Myanmar,20.15,94.95
Huixquilucan,Mexico,19.3611,-99.3508
Lincoln,United States,40.8099,-96.6784
Ichalkaranji,India,16.7,74.47
Punto Fijo,Venezuela,11.7167,-70.1833
Varzea Grande,Brazil,-15.65,-56.1333
Sincelejo,Colombia,9.295,-75.3961
Ibaraki,Japan,34.8164,135.5686
Katowice,Poland,50.2667,19.0167
Ar Rusayfah,Jordan,32.0178,36.0464
Camacari,Brazil,-12.6978,-38.3239
Jersey City,United States,40.7184,-74.0686
San Cristobal,Venezuela,7.7682,-72.2322
Round Lake Beach,United States,42.3791,-88.0811
Bolton,United Kingdom,53.578,-2.429
San Pablo,Philippines,14.07,121.325
Suzano,Brazil,-23.5428,-46.3108
Korhogo,Côte d'Ivoire,9.4167,-5.6167
Bhatinda,India,30.23,74.9519
Cascavel,Brazil,-24.9556,-53.4553
Flint,United States,43.0236,-83.6921
Ostrava,Czechia,49.8356,18.2925
Tacna,Peru,-18.0147,-70.2489
Shreveport,United States,32.4653,-93.7955
Al Qurnah,Iraq,31.0158,47.4306
Jalna,India,19.841,75.8864
Aarhus,Denmark,56.1572,10.2107
Constanta,Romania,44.1667,28.6333
San Juan Sacatepequez,Guatemala,14.7189,-90.6442
Myeik,Myanmar,12.4333,98.6
Fukushima,Japan,37.7608,140.4747
Coro,Venezuela,11.395,-69.6816
Bago,Myanmar,17.3333,96.4833
Pasarkemis,Indonesia,-6.1703,106.53
Fuquan,China,26.7039,107.5087
Tongchuanshi,China,35.08,109.03
Sannai,India,24.5984,80.8281
Huozhou,China,36.5726,111.7176
Temuco,Chile,-38.7333,-72.6667
Ihosy,Madagascar,-22.4036,46.1258
Sterlitamak,Russia,53.6333,55.95
Tegal,Indonesia,-6.8667,109.1333
Ica,Peru,-14.0667,-75.7333
Lucena,Philippines,13.9333,121.6167
Plano,United States,33.0502,-96.7486
Jining,China,41.03,113.08
Chuncheon,South Korea,37.8667,127.7333
Malard,Iran,35.6658,50.9767
Pematangsiantar,Indonesia,2.96,99.06
Satna,India,24.6005,80.8322
Long Xuyen,Vietnam,10.3736,105.4458
Myrtle Beach,United States,33.7094,-78.8844
Governador Valadares,Brazil,-18.85,-41.9333
Petrozavodsk,Russia,61.7833,34.35
Santa Ana,El Salvador,13.995,-89.5561
Mau,India,25.9417,83.5611
Companiganj,Bangladesh,22.875,91.2833
Wiesbaden,Germany,50.0825,8.24
Mingaora,Pakistan,34.7717,72.36
Davenport,United States,41.5565,-90.6053
Bukhara,Uzbekistan,39.7667,64.4333
Sumbe,Angola,-11.2053,13.8417
Viet Tri,Vietnam,21.3,105.4333
Sunderland,United Kingdom,54.906,-1.381
Barasat,India,22.72,88.48
Cherkasy,Ukraine,49.4444,32.0597
Maastricht,Netherlands,50.85,5.6833
Corlu,Turkey,41.15,27.8
Kostroma,Russia,57.7681,40.9269
Gyeongsan,South Korea,35.8167,128.7333
Ciego de Avila,Cuba,21.8481,-78.7631
Mamuju,Indonesia,-2.6833,118.9
Los Alcarrizos,Dominican Republic,18.5167,-70.0167
Nizhnevartovsk,Russia,60.95,76.6
San Mateo,Philippines,14.6969,121.1219
Shaowu,China,27.3417,117.4869
Canton,United States,40.8078,-81.3676
Sfax,Tunisia,34.74,10.76
Dinajpur,Bangladesh,25.6167,88.65
Dire Dawa,Ethiopia,9.6,41.8667
Gagnoa,Côte d'Ivoire,6.1333,-5.9333
Khmelnytskyi,Ukraine,49.4167,27
Farrukhabad,India,27.39,79.581
Lashkar Gah,Afghanistan,31.5831,64.3692
Posadas,Argentina,-27.3667,-55.9
Gatineau,Canada,45.4833,-75.65
Windsor,Canada,42.2833,-83
Santa Clarita,United States,34.4175,-118.4964
Kunsan,South Korea,35.9833,126.7167
Minato,Japan,35.658,139.7515
Qarshi,Uzbekistan,38.8667,65.8
Chula Vista,United States,32.6281,-117.0144
Saugor,India,23.83,78.71
Kafr ad Dawwar,Egypt,31.1311,30.13
Ratlam,India,23.334,75.037
Yeosu,South Korea,34.7607,127.6622
Crato,Brazil,-7.4639,-63.04
My Tho,Vietnam,10.35,106.35
Volta Redonda,Brazil,-22.5228,-44.1039
Eugene,United States,44.0564,-123.1174
Tsu,Japan,34.7184,136.5057
Novorossiysk,Russia,44.7167,37.75
Bijiao,China,22.9311,113.2018
Szekesfehervar,Hungary,47.1956,18.4089
Soubre,Côte d'Ivoire,5.7833,-6.6
Palmas,Brazil,-10.1844,-48.3336
Majene,Indonesia,-3.5403,118.9707
Sorong,Indonesia,-0.8667,131.25
Chandler,United States,33.2825,-111.8514
Craiova,Romania,44.3333,23.8167
Thai Binh,Vietnam,20.4461,106.3422
Binjai,Indonesia,3.5986,98.4803
Fuchu,Japan,35.6689,139.4776
Gabela,Angola,-10.85,14.3667
Sakarya,Turkey,40.7833,30.4
Dayr az Zawr,Syria,35.3333,40.15
Brahmanbaria,Bangladesh,23.9656,91.108
Mito,Japan,36.3658,140.4712
Sarta,Iran,36.4491,53.3234
Plymouth,United Kingdom,50.3714,-4.1422
Santo Domingo de los Colorados,Ecuador,-0.2542,-79.1719
Arnavutkoy,Turkey,41.1856,28.7406
Nguru,Nigeria,12.8792,10.4525
Maradi,Niger,13.4833,7.1
Gombe,Nigeria,10.2904,11.17
Gijon,Spain,43.5333,-5.7
Drug,India,21.19,81.28
Floridablanca,Colombia,7.2167,-73.0667
Handwara,India,34.4,74.28
Quilmes,Argentina,-34.7167,-58.2667
Talisay,Philippines,10.25,123.8333
Kunduz,Afghanistan,36.7286,68.8681
Yoshkar-Ola,Russia,56.6328,47.8958
Nalchik,Russia,43.4833,43.6167
Aswan,Egypt,24.0889,32.8997
Ichihara,Japan,35.4981,140.1154
Salem,United States,44.9233,-123.0244
Zhytomyr,Ukraine,50.25,28.6667
Imphal,India,24.8074,93.9384
Inegol,Turkey,40.0806,29.5097
Chernivtsi,Ukraine,48.3,25.9333
Tarija,Bolivia,-21.5333,-64.7333
Siddhirganj,Bangladesh,23.6833,90.5167
Bimo,Central African Republic,4.2558,18.4042
Heroica Nogales,Mexico,31.3186,-110.9458
Bergen,Norway,60.3894,5.33
Sumare,Brazil,-22.8219,-47.2669
Feni,Bangladesh,23.0183,91.41
Sumy,Ukraine,50.9167,34.75
Anantapur,India,14.68,77.599
Westminster,United Kingdom,51.4947,-0.1353
Xiangkhoang,Laos,19.4167,103.5
Maraba,Brazil,-5.35,-49.1167
Kutahya,Turkey,39.4167,29.9833
Gent,Belgium,51.0536,3.7253
Yao,Japan,34.6269,135.601
Djelfa,Algeria,34.6667,3.25
Barueri,Brazil,-23.5111,-46.8764
Bordeaux,France,44.84,-0.58
Nagaoka,Japan,37.4462,138.8512
Suncheon,South Korea,34.9506,127.4875
Jalalabad,Afghanistan,34.4342,70.4478
Engels,Russia,51.5017,46.1222
Malolos,Philippines,14.8433,120.8114
Nogales,Mexico,31.1833,-111
Dezful,Iran,32.3825,48.4019
Ed Daein,Sudan,11.4608,26.1283
Luque,Paraguay,-25.27,-57.4872
Potosi,Bolivia,-19.5892,-65.7533
Concord,United States,35.3933,-80.6369
Sao Jose dos Pinhais,Brazil,-25.535,-49.2058
Osmaniye,Turkey,37.075,36.25
Arrah,India,25.5514,84.6603
Kyongju,South Korea,35.85,129.2167
Dumai,Indonesia,1.6667,101.45
Taluqan,Afghanistan,36.7167,69.5167
Damanhur,Egypt,31.0361,30.4694
El Fasher,Sudan,13.6306,25.35
Malkajgiri,India,17.4519,78.5362
Nawabshah,Pakistan,26.2442,68.41
Tchibota,Congo (Brazzaville),-4.1794,11.3731
Annaba,Algeria,36.9,7.7667
Gelsenkirchen,Germany,51.5167,7.1
Monchengladbach,Germany,51.2,6.4333
Kakogawacho-honmachi,Japan,34.75,134.8333
Wollongong,Australia,-34.4331,150.8831
Gilbert,United States,33.31,-111.7463
Nonthaburi,Thailand,13.8667,100.5167
Columbus,United States,32.51,-84.8771
Marilao,Philippines,14.7581,120.9481
Fukui,Japan,36.0641,136.2196
Venice,Italy,45.4397,12.3319
Boksburg,South Africa,-26.2125,28.2625
Quang Ngai,Vietnam,15.1167,108.8
Olongapo,Philippines,14.83,120.28
Ciudad Benito Juarez,Mexico,25.65,-100.0833
Hiratsuka,Japan,35.3167,139.35
Tiruvottiyur,India,13.16,80.3
Oume,Côte d'Ivoire,6.3833,-5.4167
Soka,Japan,35.8254,139.8053
Bunkyo-ku,Japan,35.708,139.7523
Aguadilla,Puerto Rico,18.4382,-67.1537
Al Hamzah,Iraq,31.7339,45.0086
Lubbock,United States,33.5657,-101.8879
Mossoro,Brazil,-5.1878,-37.3439
Kotri,Pakistan,25.366,68.3122
North Las Vegas,United States,36.2883,-115.0888
Tuzla,Turkey,40.8161,29.3006
Singa,Sudan,13.15,33.9333
Misratah,Libya,32.3775,15.092
Isparta,Turkey,37.7647,30.5567
Derby,United Kingdom,52.9217,-1.4767
Verona,Italy,45.4386,10.9928
Huayin,China,34.5664,110.0866
Siverek,Turkey,37.75,39.3167
St. Petersburg,United States,27.7931,-82.6652
Ndulo,Angola,-11.4833,15.8333
Raniyah,Iraq,36.255,44.8836
Germiston,South Africa,-26.2178,28.1672
Tallahassee,United States,30.4551,-84.2527
Mount Lavinia,Sri Lanka,6.8731,79.8758
Etawah,India,26.77,79.03
Horlivka,Ukraine,48.3336,38.0925
Antsirabe,Madagascar,-19.8667,47.0333
Ondo,Nigeria,7.0833,4.8333
Indaiatuba,Brazil,-23.0903,-47.2181
Puducherry,India,11.9167,79.8167
Laredo,United States,27.5625,-99.4874
Ap Da Loi,Vietnam,11.9333,108.4667
Foz do Iguacu,Brazil,-25.54,-54.5875
Khimki,Russia,55.8892,37.445
Sab` al Bur,Iraq,33.4644,44.1536
Gravatai,Brazil,-29.9333,-50.9833
Chiayi,Taiwan,23.48,120.4497
Kediri,Indonesia,-7.8111,112.0047
Damaturu,Nigeria,11.7444,11.9611
Tokushima,Japan,34.0703,134.5549
Arua,Uganda,3.0353,30.9108
Peoria,United States,40.752,-89.6154
Turmero,Venezuela,10.2283,-67.4753
Pointe-a-Pitre,Guadeloupe,16.2411,-61.5331
Kuala Terengganu,Malaysia,5.3292,103.1361
Campeche,Mexico,19.85,-90.5306
Byatarayanpur,India,13.0659,77.5922
Mawlamyine,Myanmar,16.4847,97.6258
Godome,Benin,6.3667,2.35
San Pedro Carcha,Guatemala,15.4768,-90.312
Mocamedes,Angola,-15.1953,12.1508
La Paz,Mexico,24.1422,-110.3108
Central District,Hong Kong,22.2867,114.155
Sao Carlos,Brazil,-22,-47.8908
Vitoria-Gasteiz,Spain,42.85,-2.6833
Wolverhampton,United Kingdom,52.5833,-2.1333
Avondale,United States,33.3873,-112.3235
Lafayette,United States,30.2082,-92.0325
Ash Shatrah,Iraq,31.4097,46.1717
Irving,United States,32.8583,-96.9702
Rishon LeZiyyon,Israel,31.95,34.8
Montgomery,United States,32.3482,-86.2668
Cekme,Turkey,41.0369,29.1786
Jhenida,Bangladesh,23.5417,89.1833
Bharatpur,India,27.22,77.48
Gadda Madiral,India,18.7519,79.5133
Shinozaki,Japan,33.95,130.9333
Goma,Congo (Kinshasa),-1.6794,29.2336
Tacloban,Philippines,11.2444,125.0039
Turku,Finland,60.45,22.2667
Rach Gia,Vietnam,10.0167,105.0833
Kanggye,North Korea,40.9667,126.6
Taganrog,Russia,47.2167,38.9167
Kiziltepe,Turkey,37.1939,40.5861
El Geneina,Sudan,13.45,22.45
Las Condes,Chile,-33.4117,-70.55
Hakodate,Japan,41.7686,140.7289
Usak,Turkey,38.6778,29.4042
Junagarh,India,19.8599,82.9338
Begusarai,India,25.42,86.13
Sao Jose,Brazil,-27.6,-48.6167
A Coruna,Spain,43.3667,-8.3833
Los Teques,Venezuela,10.3411,-67.0406
Jinshi,China,29.6334,111.8746
Chofugaoka,Japan,35.6506,139.5407
Tsing Yi Town,Hong Kong,22.3456,114.1
Higuey,Dominican Republic,18.6167,-68.7
Juazeiro do Norte,Brazil,-7.2,-39.3333
Bata,Equatorial Guinea,1.865,9.77
Al Minya,Egypt,28.1194,30.7444
Aachen,Germany,50.7756,6.0836
Babol,Iran,36.5514,52.6789
Komsomol'sk-na-Amure,Russia,50.5667,137
Iwo,Nigeria,7.6333,4.1833
Rivne,Ukraine,50.6192,26.2519
Galati,Romania,45.4233,28.0425
Natogyi,Myanmar,21.4167,95.65
Braunschweig,Germany,52.2667,10.5167
Kalar,Iraq,34.6292,45.3222
Al Bayda',Libya,32.7664,21.7417
Yanbu,Saudi Arabia,24.0883,38.0582
Kurmuk,Sudan,10.55,34.2833
Shibuya-ku,Japan,35.6637,139.6977
Gandhidham,India,23.08,70.13
Manzhouli,China,49.5881,117.4525
Visalia,United States,36.3276,-119.3269
Gdynia,Poland,54.5,18.5333
Ramnagar,India,27.17,84.32
Palangkaraya,Indonesia,-2.21,113.92
Chemnitz,Germany,50.8333,12.9167
Chigasaki,Japan,35.3333,139.4
Buyukcekmece,Turkey,41.02,28.5775
Khomeyni Shahr,Iran,32.7003,51.5211
Carmen,Mexico,18.4167,-91.6333
McKinney,United States,33.2016,-96.667
Sahiwal,Pakistan,30.6611,73.1083
Qa'em Shahr,Iran,36.4631,52.86
Banikoara,Benin,11.3,2.4333
Kiel,Germany,54.3233,10.1394
Sibu,Malaysia,2.3,111.8167
Yato,Japan,35.4833,139.45
Parana,Argentina,-31.7331,-60.5297
Santa Clara,Cuba,22.4069,-79.9649
Yamagata,Japan,38.2554,140.3396
Katihar,India,25.53,87.58
Beykoz,Turkey,41.1342,29.0922
Imperatriz,Brazil,-5.5333,-47.4833
Oruro,Bolivia,-17.9799,-67.13
Merlo,Argentina,-34.6653,-58.7275
Tsukuba-kenkyugakuen-toshi,Japan,36.0835,140.0764
Wilmington,United States,34.2099,-77.8866
Kesbewa,Sri Lanka,6.7953,79.9386
Barnsley,United Kingdom,53.5547,-1.4791
Chesapeake,United States,36.6778,-76.3023
Syktyvkar,Russia,61.6667,50.8167
Gyor,Hungary,47.6842,17.6344
Biratnagar,Nepal,26.4542,87.2797
Hafizabad,Pakistan,32.0714,73.6878
Saskatoon,Canada,52.1333,-106.6833
Krishnarajpur,India,13.012,77.6951
Abertawe,United Kingdom,51.6167,-3.95
Americana,Brazil,-22.7386,-47.3311
Mahajanga,Madagascar,-15.7167,46.3167
Long Khanh,Vietnam,10.917,107.167
Nelamangala,India,13.102,77.374
Jessore,Bangladesh,23.1704,89.2
Beichengqu,China,40.4348,113.1565
Glendale,United States,33.5791,-112.2311
Tuy Hoa,Vietnam,13.0819,109.295
Garland,United States,32.91,-96.6304
Singrauliya,India,24.11,82.39
Fuji,Japan,35.1613,138.6763
Mokpo,South Korea,34.7589,126.38
Kabinda,Congo (Kinshasa),-6.13,24.48
Tanga,Tanzania,-5.0667,39.1
Santa Maria,Brazil,-29.6833,-53.8
Sabzevar,Iran,36.2125,57.6819
Banchpar,Bangladesh,23.2,90.8
Ramgundam,India,18.7639,79.475
Tarapoto,Peru,-6.4833,-76.3667
Bahir Dar,Ethiopia,11.6,37.3833
Baruta,Venezuela,10.4322,-66.8739
Sapele,Nigeria,5.8261,5.6536
Sasebo,Japan,33.18,129.715
Myitkyina,Myanmar,25.3833,97.4
Pandharpur,India,17.6778,75.3278
Sakaka,Saudi Arabia,29.9697,40.2
Haeju,North Korea,38.0333,125.7167
Petah Tiqwa,Israel,32.0889,34.8864
Gonzalez Catan,Argentina,-34.7667,-58.6167
Masaurhi Buzurg,India,25.35,85.02
Qyzylorda,Kazakhstan,44.85,65.5167
Diaobingshancun,China,42.4391,123.5426
Man,Côte d'Ivoire,7.4,-7.55
Zhangping,China,25.2938,117.4148
Dagana,Senegal,16.4833,-15.6
Bac Lieu,Vietnam,9.2833,105.7167
Kennewick,United States,46.1978,-119.1732
Lille,France,50.6278,3.0583
Duzce,Turkey,40.8417,31.1583
Ipatinga,Brazil,-19.5,-42.5333
Anju,North Korea,39.62,125.66
Marilia,Brazil,-22.2139,-49.9458
Winter Haven,United States,28.0118,-81.7014
Monclova,Mexico,26.9103,-101.4222
Stavanger,Norway,58.97,5.7314
Abi al Khasib,Iraq,30.4411,47.9725
Atushi,China,39.7162,76.1684
Chimoio,Mozambique,-19.1167,33.45
Limassol,Cyprus,34.6747,33.0442
Ivano-Frankivsk,Ukraine,48.9228,24.7106
Novo Hamburgo,Brazil,-29.6778,-51.1308
Halle,Germany,51.4828,11.9697
Arakawa,Japan,35.7361,139.7834
Longueuil,Canada,45.5333,-73.5167
Szeged,Hungary,46.255,20.145
Viamao,Brazil,-30.0808,-51.0228
Kosice,Slovakia,48.7167,21.25
Matsumoto,Japan,36.238,137.972
Tuticorin,India,8.7642,78.1348
Banda Aceh,Indonesia,5.55,95.3175
Shenmu,China,38.827,110.499
Springs,South Africa,-26.2547,28.4428
Taiping,Malaysia,4.85,100.7333
Zinder,Niger,13.8053,8.9883
Ganganagar,India,29.92,73.88
As Sib,Oman,23.6703,58.1891
P'yong-dong,North Korea,39.25,125.85
Scottsdale,United States,33.6872,-111.8651
Amol,Iran,36.4697,52.3508
Norfolk,United States,36.8945,-76.259
Nyiregyhaza,Hungary,47.9531,21.7271
Eindhoven,Netherlands,51.4333,5.4833
Killeen,United States,31.0753,-97.7297
Wuyishan,China,27.7562,118.0267
Mirpur Khas,Pakistan,25.5269,69.0111
Sandnes,Norway,58.8517,5.7361
Beji,Indonesia,-6.3704,106.8176
Pathein,Myanmar,16.7778,94.7369
Nizhnekamsk,Russia,55.6333,51.8167
Magdeburg,Germany,52.1317,11.6392
Neya,Japan,34.7667,135.6333
Rewa,India,24.53,81.3
Chishui,China,28.5902,105.6946
Centurion,South Africa,-25.8603,28.1894
Uluberiya,India,22.47,88.11
Djougou,Benin,9.7,1.6667
Pakdasht,Iran,35.4817,51.6803
Shakhty,Russia,47.7,40.2333
North Hempstead,United States,40.7912,-73.6688
York,United States,39.9651,-76.7315
Atlantic City,United States,39.3797,-74.4527
Ibb,Yemen,13.9759,44.1709
Elche,Spain,38.2669,-0.6983
Abha,Saudi Arabia,18.2169,42.5053
Bulandshahr,India,28.4069,77.8497
Groningen,Netherlands,53.2167,6.5667
Nashua,United States,42.7491,-71.491
Jacarei,Brazil,-23.3053,-45.9658
Arlington,United States,38.8786,-77.1011
Brownsville,United States,25.9975,-97.458
Bole,China,44.8539,82.0514
Ganda,Angola,-13.0858,14.7417
Cannanore,India,11.8689,75.3555
Najafabad,Iran,32.6347,51.3653
Bayamo,Cuba,20.3817,-76.6428
Kamianske,Ukraine,48.5167,34.6167
Borujerd,Iran,33.8972,48.9017
Singaraja,Indonesia,-8.1167,115.0833
Macae,Brazil,-22.3708,-41.7869
Miri,Malaysia,4.3925,113.9861
Machala,Ecuador,-3.2667,-79.9667
Kasulu,Tanzania,-4.58,30.1
Longquan,China,28.0733,119.1277
Granada,Spain,37.1781,-3.6008
Bo,Sierra Leone,7.9564,-11.74
Messina,Italy,38.1936,15.5542
Oral,Kazakhstan,51.2225,51.3725
Badalona,Spain,41.4333,2.2333
Formosa,Argentina,-26.1833,-58.1833
San Cristobal,Dominican Republic,18.4167,-70.1056
Arapiraca,Brazil,-9.7519,-36.6608
Mambere,Central African Republic,5.5,15.5
Damboa,Nigeria,11.15,12.75
Okara,Pakistan,30.8092,73.4536
Saidpur,Bangladesh,25.8004,89
Freiburg im Breisgau,Germany,47.995,7.85
Khenifra,Morocco,32.9394,-5.6675
Saga,Japan,33.2667,130.3
Raichur,India,16.2,77.37
Burnaby,Canada,49.2667,-122.9667
Meycauayan,Philippines,14.7333,120.95
Son Tay,Vietnam,21.1333,105.5
Nazipur,Bangladesh,25.0415,88.7605
Rancagua,Chile,-34.1667,-70.75
Kasukabe,Japan,35.9753,139.7523
Dzerzhinsk,Russia,56.2333,43.45
Phu Yen,Vietnam,21.4156,105.8739
Bratsk,Russia,56.1167,101.6
Barishal,Bangladesh,22.7,90.3667
Jiayuguan,China,39.8112,98.2862
Santa Ana,Philippines,14.58,121.012
Eloy Alfaro,Ecuador,-2.1733,-79.8311
Envigado,Colombia,6.1667,-75.5667
Banfield,Argentina,-34.75,-58.3833
Guadalupe,Mexico,22.7528,-102.5078
Ageoshimo,Japan,35.9774,139.5932
Fremont,United States,37.5265,-121.9843
Qarchak,Iran,35.4394,51.5689
Gulfport,United States,30.4274,-89.0704
Purwokerto,Indonesia,-7.4278,109.2417
Puerto Vallarta,Mexico,20.6458,-105.2222
Toluca,Mexico,19.2925,-99.6569
Ormoc,Philippines,11.0106,124.6075
Neuquen,Argentina,-38.9525,-68.0642
Fresnillo,Mexico,23.175,-102.8675
Singkawang,Indonesia,0.9,108.9833
Orsk,Russia,51.2,58.5667
Vizianagaram,India,18.1159,83.406
Manavgat,Turkey,36.7833,31.4333
Cotia,Brazil,-23.6042,-46.9194
Pali,India,25.77,73.33
Songadh,India,21.167,73.564
Noginsk,Russia,64.4833,91.2333
Kropyvnytskyi,Ukraine,48.5,32.2667
Haridwar,India,29.945,78.163
Ordu,Turkey,40.9833,37.8833
Taito,Japan,35.7126,139.78
Ternopil,Ukraine,49.5667,25.6
Bojnurd,Iran,37.475,57.3333
Rondonopolis,Brazil,-16.4667,-54.6333
Coban,Guatemala,15.4833,-90.3667
Guantanamo,Cuba,20.1367,-75.2139
Krefeld,Germany,51.3333,6.5667
Pathardi,India,19.17,75.18
Sabya,Saudi Arabia,17.1489,42.6258
Kolpino,Russia,59.7333,30.6
Petlad,India,22.47,72.8
Khanewal,Pakistan,30.3,71.9333
Mage,Brazil,-22.6528,-43.0408
Ninh Hoa,Vietnam,12.4917,109.1258
Khatima,India,28.92,79.97
Apapa,Nigeria,6.45,3.3667
Choloma,Honduras,15.6136,-87.9511
Capiata,Paraguay,-25.35,-57.42
Pallavaram,India,12.9675,80.1491
Nadiad,India,22.69,72.86
Tarrasa,Spain,41.5611,2.0081
Dasoguz,Turkmenistan,41.8333,59.9667
Probolinggo,Indonesia,-7.75,113.2167
Cikupa,Indonesia,-6.4947,106.6511
Evansville,United States,37.9881,-87.5341
Araraquara,Brazil,-21.7939,-48.1758
Quetzaltenango,Guatemala,14.8333,-91.5167
Angarsk,Russia,52.55,103.9
Sousse,Tunisia,35.8333,10.6333
Nyanza,Rwanda,-2.35,29.7333
Cox's Bazar,Bangladesh,21.4272,92.005
Takarazuka,Japan,34.8114,135.3406
Atsugicho,Japan,35.4333,139.3667
Itapevi,Brazil,-23.5489,-46.9342
Marcory,Côte d'Ivoire,5.3,-3.9833
Toamasina,Madagascar,-18.15,49.4167
Padangsidempuan,Indonesia,1.3786,99.2722
Varamin,Iran,35.3242,51.6458
Mutare,Zimbabwe,-18.9667,32.6333
Mubi,Nigeria,10.2604,13.2606
Chuadanga,Bangladesh,23.644,88.8556
Korolev,Russia,55.9167,37.8167
Hunchun,China,42.8679,130.3585
Blagoveshchensk,Russia,50.2578,127.5364
Velikiy Novgorod,Russia,58.521,31.2758
Longjin,China,22.8711,113.0684
Rennes,France,48.1147,-1.6794
Ashdod,Israel,31.8,34.65
Czestochowa,Poland,50.8,19.1167
Carlos Manuel de Cespedes,Cuba,21.5767,-78.2775
Chapeco,Brazil,-27.0958,-52.6178
Hialeah,United States,25.8696,-80.3045
Ota,Japan,36.2911,139.3754
Sandton,South Africa,-26.107,28.0517
Navarre,United States,30.4174,-86.8907
Ijebu-Ode,Nigeria,6.8208,3.9208
Tilburg,Netherlands,51.55,5.0833
Cork,Ireland,51.8972,-8.47
Tanjore,India,10.787,79.1378
Bandar-e Bushehr,Iran,28.9264,50.8514
Hachinohe,Japan,40.5123,141.4884
Staryy Oskol,Russia,51.2981,37.835
Kichha,India,28.92,79.5
Secunderabad,India,17.4399,78.4983
Tiptur,India,13.26,76.48
Ji'an Shi,China,41.1231,126.1815
Mallawi,Egypt,27.7333,30.8333
Jose C. Paz,Argentina,-34.5167,-58.7667
Bel Air South,United States,39.5022,-76.3113
Rufisque,Senegal,14.7167,-17.2667
Presidente Prudente,Brazil,-22.1256,-51.3889
Barra do Dande,Angola,-8.4728,13.3731
Hobart,Australia,-42.8806,147.325
Swindon,United Kingdom,51.56,-1.78
Lutsk,Ukraine,50.75,25.3358
Katri,India,23.48,80.4
Sambhal,India,28.58,78.55
Gueckedou,Guinea,8.5667,-10.1333
Sabadell,Spain,41.5483,2.1075
Neyshabur,Iran,36.22,58.82
North Port,United States,27.0576,-82.1977
Radom,Poland,51.4036,21.1567
Santa Luzia,Brazil,-19.77,-43.8506
Polokwane,South Africa,-23.9,29.45
Chi Linh,Vietnam,21.133,106.383
Tchaourou,Benin,8.8833,2.6
Duekoue,Côte d'Ivoire,6.7333,-7.35
San Felipe,Venezuela,10.3353,-68.7458
Saveh,Iran,35.0214,50.3567
San Bernardino,United States,34.1416,-117.2943
Portland,United States,43.6773,-70.2715
Santo Tomas,Philippines,14.0833,121.1833
Osisioma,Nigeria,5.1497,7.3303
La Vega,Dominican Republic,19.22,-70.53
Nishitokyo,Japan,35.7256,139.5383
Damietta,Egypt,31.4167,31.8214
Pangkalpinang,Indonesia,-2.1333,106.1167
Juazeiro,Brazil,-9.4306,-40.5028
Kremenchuk,Ukraine,49.0631,33.4039
Itabuna,Brazil,-14.7858,-39.28
Anand,India,22.556,72.951
Ciputat,Indonesia,-6.3111,106.7619
Al Khubar,Saudi Arabia,26.2833,50.2
Penalolen,Chile,-33.4833,-70.55
Islington,United Kingdom,51.544,-0.1027
Mainz,Germany,49.9833,8.2667
Konibodom,Tajikistan,40.2833,70.4167
Zakhu,Iraq,37.15,42.6833
Enterprise,United States,36.0091,-115.2278
Bremerton,United States,47.5436,-122.7121
Cordoba,Mexico,18.8942,-96.9347
Green Bay,United States,44.5148,-87.9895
Tulua,Colombia,4.0833,-76.2
Pleiku,Vietnam,13.9833,108
Hortolandia,Brazil,-22.8583,-47.22
